id;code_postal;adresse;ville;latitude;longitude;prix_sp95;debut_rupture_sp95_si_temporaire;type_rupture_sp95;carburants_disponibles;carburants_indisponibles;carburants_en_rupture_temporaire;carburants_en_rupture_definitive;departement;code_departement;region;code_region
1230002;1230;38 AVENUE DE L EUROPE;Saint-Rambert-en-Bugey;45.942;5.432;1.76;;;Gazole,SP95,SP98;E85,GPLc,E10;;GPLc;;;;
82700001;82700;171 Avenue d'Auch;Montech;43.956;1.221;1.849;;;Gazole,SP95;E85,GPLc,E10,SP98;;E85;;;;
37300001;37300;Boulevard des Bretonnières;Joué-lès-Tours;47.346;0.643;1.739;;;Gazole,SP95,SP98;E85,GPLc,E10;;E85;;;;
12160002;12160;241 Avenue de Marengo;Baraqueville;44.278;2.43;1.863;;;Gazole,SP95;E85,GPLc,E10,SP98;;E85;;;;
71490005;71490;69 RUE SAINT NICOLAS;Couches;46.866;4.58;1.979;;;Gazole,SP95,SP98;E85,GPLc,E10;;E85;;;;
71110003;71110;Le Champêtre;Baugy;46.289;4.041;1.799;;;Gazole,SP95,SP98;E85,GPLc,E10;;;Saône-et-Loire;71;Bourgogne-Franche-Comté;27
73024001;73000;1327 Avenue de la Houille Blanche;Chambéry;45.589;5.89;1.844;;;Gazole,SP95;E85,GPLc,E10,SP98;GPLc;E10;Savoie;73;Auvergne-Rhône-Alpes;84
18200002;18200;43 Rue de Juranville;Saint-Amand-Montrond;46.726;2.503;1.801;;;Gazole,SP95;E85,GPLc,E10,SP98;;E85;;;;
75016011;75116;69 Avenue Kléber;Paris;48.865;2.289;2.47;;;Gazole,SP95,SP98;E85,GPLc,E10;E85;;;;;
20200014;20200;9 ROUTE DU CAP;Ville-di-Pietrabugno;42.71166175624099;9.4542959899902;1.85;;;Gazole,SP95;E85,GPLc,E10,SP98;;E85;;;;
71670001;71670;AV DE CHAMBREUIL;Le Breuil;46.805;4.474;1.739;;;Gazole,SP95,E10,SP98;E85,GPLc;;;Saône-et-Loire;71;Bourgogne-Franche-Comté;27
31880001;31880;Avenue des Capitouls;La Salvetat-Saint-Gilles;43.582;1.275;1.749;;;Gazole,SP95,E85,E10,SP98;GPLc;;GPLc;Haute-Garonne;31;Occitanie;76
65330001;65330;31 ROUTE DES PYRENEES;Tournous-Devant;43.244543825861996;0.4205348233059;1.719;;;Gazole,SP95,SP98;E85,GPLc,E10;;E85;;;;
33250004;33250;21 Rue de la République;Pauillac;45.201;-0.75;1.679;;;Gazole,SP95,E10,SP98;E85,GPLc;;E85;;;;
20111001;20111;Tiuccia;Casaglione;42.062;8.741;1.919;;;Gazole,SP95;E85,GPLc,E10,SP98;;;Corse-du-Sud;2A;Corse;94
29300004;29300;119 Rue du Couëdic;Quimperlé;47.88;-3.554;1.735;;;Gazole,SP95,E85,GPLc,E10;SP98;;SP98;Finistère;29;Bretagne;53
56310001;56310;Route de Plouay;Bubry;47.961;-3.179;1.669;;;Gazole,SP95,E10;E85,GPLc,SP98;;E85;;;;
59730005;29730;1 rue du moulin;Guilvinec;47.805036148463;-4.2805982128066;1.708;;;Gazole,SP95,SP98;E85,GPLc,E10;;;Finistère;29;Bretagne;53
11160002;11160;ZA les Terres Rouges - avenue du Minervois;Villeneuve-Minervois;43.314;2.47;1.73;;;Gazole,SP95,SP98;E85,GPLc,E10;;E85;;;;
24190001;24190;ROUTE DE BORDEAUX;Neuvic;45.097;0.475;1.659;;;Gazole,SP95,SP98;E85,GPLc,E10;;;Dordogne;24;Nouvelle-Aquitaine;75
47450002;47450;70 route de bibes;Colayrac-Saint-Cirq;44.22087;0.57989;1.688;;;Gazole,SP95,E10;E85,GPLc,SP98;;;Lot-et-Garonne;47;Nouvelle-Aquitaine;75
90500002;90500;Rue Alfred Péchin;Beaucourt;47.49;6.922;1.719;;;Gazole,SP95,E10,SP98;E85,GPLc;;;Territoire de Belfort;90;Bourgogne-Franche-Comté;27
60360001;60360;Avenue du Général de Gaulle;Crèvecœur-le-Grand;49.604;2.085;1.679;;;Gazole,SP95,E10,SP98;E85,GPLc;;E85;;;;
65370002;65370;ROUTE NATIONALE;Loures-Barousse;43.024;0.603;1.725;;;Gazole,SP95,SP98;E85,GPLc,E10;;E85;;;;
7170002;7170;RN 102;Lavilledieu;44.57059;4.4591;1.769;;;Gazole,SP95,E85,GPLc,E10,SP98;;;;Ardèche;7;Auvergne-Rhône-Alpes;84
54520001;54520;rue de la Sapinière;Laxou;48.6912106069;6.1277614592;1.779;;;Gazole,SP95,GPLc,E10;E85,SP98;;E85;;;;
85310001;85310;31 RUE DU MOULIN ROUGE;La Chaize-le-Vicomte;46.669;-1.287;1.805;;;Gazole,SP95,E10,SP98;E85,GPLc;;E85;;;;
49230002;49230;place saint maurice;Vallet;47.1552442;-1.2097638;1.699;;;Gazole,SP95,SP98;E85,GPLc,E10;;E85;;;;
20230010;20230;SASU CORSICA MODELISME;San-Nicolao;42.368;9.507;1.985;;;Gazole,SP95;E85,GPLc,E10,SP98;;E85;;;;
40400005;40400;CHEMIN DU TUCAT;Bégaar;43.8229686;-0.84894289;1.679;;;Gazole,SP95,E10,SP98;E85,GPLc;;E85;;;;
20620002;20620;Route de Rutali;Biguglia;42.593;9.436;1.83;;;Gazole,SP95;E85,GPLc,E10,SP98;E85;;;;;
50000005;50000;54 Rue de la Poterne;Saint-Lô;49.117;-1.097;1.699;;;Gazole,SP95,SP98;E85,GPLc,E10;;E85;Manche;50;Normandie;28
44560001;44560;Rue Férréol Prézelin;Paimbœuf;47.284;-2.016;1.76;;;Gazole,SP95,E10,SP98;E85,GPLc;;E85;;;;
89290002;89290;ROUTE DE VINCELOTTES;Vincelles;47.705;3.634;1.749;;;Gazole,SP95;E85,GPLc,E10,SP98;;E85;;;;
35440002;35440;RUE CLOS GERARD;Montreuil-sur-Ille;48.30969;-1.6672;1.665;;;Gazole,SP95,SP98;E85,GPLc,E10;;E85;;;;
25130001;25130;Rue Pierre Perçot;Villers-le-Lac;47.057787912386004;6.670182578827999;1.749;;;Gazole,SP95,SP98;E85,GPLc,E10;;E85;;;;
91420002;91420;RUE DE SAVIGNY;Morangis;48.693;2.337;1.83;;;Gazole,SP95,SP98;E85,GPLc,E10;;E85;;;;
20148001;20148;Noce;Cozzano;41.935;9.158;1.826;;;Gazole,SP95;E85,GPLc,E10,SP98;;E85;;;;
12490001;12490;AV DE LA REPUBLIQUE;Saint-Rome-de-Cernon;44.012;2.964;1.779;;;Gazole,SP95;E85,GPLc,E10,SP98;;E85;;;;
39000004;39000;32 Avenue Camille Prost;Lons-le-Saunier;46.67;5.571;1.829;;;Gazole,SP95,SP98;E85,GPLc,E10;;E85;;;;
76220004;76220;RN 31;Ferrières-en-Bray;49.478;1.74;1.699;;;Gazole,SP95,E85,GPLc,E10,SP98;;;;Seine-Maritime;76;Normandie;28
21370001;21370;Rue des Trois Ponts;Velars-sur-Ouche;47.319;4.91;1.729;;;Gazole,SP95,E10;E85,GPLc,SP98;;E85;;;;
31650002;31650;Allée des Champs Pinsons;Saint-Orens-de-Gameville;43.565;1.519;1.799;;;Gazole,SP95,E10,SP98;E85,GPLc;;E85;;;;
64800007;64800;132 Rue des Pyrénées;Bénéjacq;43.186;-0.24;1.735;;;Gazole,SP95,E10,SP98;E85,GPLc;;E85;;;;
87120003;87120;1 Promenade des Sports;Eymoutiers;45.739;1.739;1.86;;;Gazole,SP95;E85,GPLc,E10,SP98;;E85;;;;
48300001;48300;Quartier du Pont d'Allier;Langogne;44.7353;3.8584;1.769;;;Gazole,SP95,SP98;E85,GPLc,E10;;E85;;;;
66700001;66700;ROUTE DE PERPIGNAN;Argelès-sur-Mer;42.557;03.01;1.709;;;Gazole,SP95,E10;E85,GPLc,SP98;;E85;;;;
7470001;7470;Le Village;Coucouron;44.801;3.972;1.789;;;Gazole,SP95,E85,E10;GPLc,SP98;GPLc;SP98;Ardèche;7;Auvergne-Rhône-Alpes;84
25400005;25400;4 RUE PHILIPPE GOUDEY;Exincourt;47.495224450569005;6.837939848159301;1.685;;;Gazole,SP95,GPLc,E10;E85,SP98;;E85;;;;
37210004;37210;27 Rue des Écoles;Vouvray;47.412;0.803;1.776;;;Gazole,SP95,SP98;E85,GPLc,E10;;E85;;;;
35111001;35111;Rue des Frênes;La Fresnais;48.591512004465;-1.8438851562724001;1.699;;;Gazole,SP95,E10,SP98;E85,GPLc;;E85;;;;
63200001;63200;AVENUE DE CLERMONT;Ménétrol;45.878;3.117;1.734;;;Gazole,SP95,E85,GPLc,E10,SP98;;;;Puy-de-Dôme;63;Auvergne-Rhône-Alpes;84
83210003;83210;Avenue Charles de Gaulle rn 97;La Farlède;43.163;6.045;1.709;;;Gazole,SP95,GPLc,E10,SP98;E85;;E85;Var;83;Provence-Alpes-Côte d'Azur;93
22120003;22120;RUE JEAN MONNET;Yffiniac;48.482;-2.646;02.03;;;Gazole,SP95,SP98;E85,GPLc,E10;;E85;;;;
88230003;88230;14, Rue du Général Ingold;Fraize;48.183292050384004;7.0040889058285;1.709;;;Gazole,SP95,SP98;E85,GPLc,E10;;E85;;;;
1700004;1700;ZAC des Baterses;Beynost;45.826;4.999;1.709;;;Gazole,SP95,E85,GPLc,E10,SP98;;;;Ain;1;Auvergne-Rhône-Alpes;84
43120001;43120;rue jean martouret;Monistrol-sur-Loire;45.290704469999994;4.16960856;1.749;;;Gazole,SP95,SP98;E85,GPLc,E10;;E85;;;;
14204001;14200;CC Hérouville Saint Clair BP 135;Hérouville-Saint-Clair;49.205;-0.328;1.709;;;Gazole,SP95,E10,SP98;E85,GPLc;;E85;;;;
31220006;31220;A64 Sortie N°24      Lieu dit Catalan;Lavelanet-de-Comminges;43.262;1.115;1.699;;;Gazole,SP95,SP98;E85,GPLc,E10;;E85;;;;
22170005;22170;34 rue de saint brieuc;Châtelaudren-Plouagat;48.537405899999996;-2.9949214;1.728;;;Gazole,SP95,SP98;E85,GPLc,E10;;E85;;;;
89100006;89100;Près Aubert St Denis les Sens;Saint-Denis-lès-Sens;48.216605760092996;3.2771067499518;1.709;;;Gazole,SP95,GPLc,E10,SP98;E85;;;Yonne;89;Bourgogne-Franche-Comté;27
81100006;81100;RUE FRANCOIS COUPERIN,C.C LAMEILHE;Castres;43.592;2.255;1.73;;;Gazole,SP95,E85,E10,SP98;GPLc;;GPLc;Tarn;81;Occitanie;76
16360001;16360;RN 10;Reignac;45.425820487558006;-0.1727259261077;1.764;;;Gazole,SP95;E85,GPLc,E10,SP98;;;Charente;16;Nouvelle-Aquitaine;75
18100015;18100;11 rue du 11 novembre;Vierzon;47.221473011548;2.0652897018218;1.739;;;Gazole,SP95,SP98;E85,GPLc,E10;;E85;;;;
79800012;79800;Route de Saint-Maixent;La Mothe-Saint-Héray;46.368732283435;-0.11752827458271001;1.686;;;Gazole,SP95,SP98;E85,GPLc,E10;;E85;;;;
84200003;84380;La Venue de Carpentras;Mazan;44.05877;5.11102;1.854;;;Gazole,SP95,SP98;E85,GPLc,E10;;E85;;;;
72290002;72290;Rue Saint laurent - Lieu dit la Cave;Ballon-Saint Mars;48.172;0.237;1.699;;;Gazole,SP95,E10,SP98;E85,GPLc;;E85;;;;
11300002;11300;59 avenue de Catalogne;Limoux;43.045;2.225;1.769;;;Gazole,SP95,SP98;E85,GPLc,E10;;E85;;;;
88600003;88600;Rue Abel Ferry;Bruyères;48.204;6.723;1.689;;;Gazole,SP95,E85,E10;GPLc,SP98;;GPLc;;;;
70220002;70220;Route de Luxeuil;Fougerolles-Saint-Valbert;47.881;6.395;1.719;;;Gazole,SP95,E10;E85,GPLc,SP98;;E85;;;;
14125001;14120;3 Rue Ambroise Croizat;Mondeville;49.163;-0.298;1.713;;;Gazole,SP95,E10,SP98;E85,GPLc;;E85;;;;
7150001;7150;La Plaine;Salavas;44.397;4.382;1.82;;;Gazole,SP95;E85,GPLc,E10,SP98;;E85;;;;
89450001;89450;RUE DU PONT;Saint-Père;47.4624788;3.7685259999999996;1.825;;;Gazole,SP95;E85,GPLc,E10,SP98;;E85;;;;
58230002;58230;14 RUE HENRI BACHELIN;Montsauche-les-Settons;47.199;4.074;1.866;;;Gazole,SP95;E85,GPLc,E10,SP98;;E85;;;;
62152001;62152;ROUTE DE BOULOGNE;Nesles;50.63;1.646;1.673;;;Gazole,SP95,SP98;E85,GPLc,E10;;E85;;;;
24320002;24320;11 rue Passadour;La Tour-Blanche-Cercles;45.369;0.446;1.726;;;Gazole,SP95,SP98;E85,GPLc,E10;;E85;;;;
39170001;39170;6 Rue du Jura;Coteaux du Lizon;46.403;5.793;1.729;;;Gazole,SP95;E85,GPLc,E10,SP98;;;Jura;39;Bourgogne-Franche-Comté;27
74200003;74200;RTE DE GENEVE;Anthy-sur-Léman;46.349;6.432;1.749;;;Gazole,SP95,GPLc,SP98;E85,E10;E85;;Haute-Savoie;74;Auvergne-Rhône-Alpes;84
29470004;29470;Avenue Charles de Gaulle;Plougastel-Daoulas;48.37935;-4.37494;1.673;;;Gazole,SP95,E10,SP98;E85,GPLc;;E85;;;;
29340002;29340;1 route de quimperle;Riec-sur-Bélon;47.84604;-3.68699;1.735;;;Gazole,SP95,E10;E85,GPLc,SP98;;E85;;;;
85110006;85110;PARC ACTIVITE POLARIS NORD;Chantonnay;46.7;-1.051;1.689;;;Gazole,SP95,E10,SP98;E85,GPLc;;E85;;;;
29180001;29180;Rue de la Presqu'Île;Plogonnec;48.08;-4.194;1.679;;;Gazole,SP95,SP98;E85,GPLc,E10;;E85;;;;
12310001;12310;30 Avenue du Rouergue;Bertholène;44.39367;2.77776;1.832;;;Gazole,SP95,SP98;E85,GPLc,E10;;E85;;;;
44330003;44330;28 Route de clisson;Vallet;47.158229280939;-1.2747920508980999;1.674;;;Gazole,SP95,E85,GPLc,E10,SP98;;;;Loire-Atlantique;44;Pays de la Loire;52
3430001;3430;Route de Hérisson;Cosne-d'Allier;46.474;2.827;1.752;;;Gazole,SP95,SP98;E85,GPLc,E10;E10;;Allier;3;Auvergne-Rhône-Alpes;84
28170002;28170;50 Rue H.Latham;Maillebois;48.63119;1.14832;1.679;;;Gazole,SP95,SP98;E85,GPLc,E10;;E85;;;;
35600006;35600;8 RUE DE LA BARRE;Redon;47.661;-2.085;1.77;;;Gazole,SP95,E85;GPLc,E10,SP98;;GPLc;;;;
40310001;40310;za LAMARRAQUE;Gabarret;43.98646;0.00999000000001;1.759;;;Gazole,SP95,SP98;E85,GPLc,E10;;E85;;;;
72120004;72120;RN 157;Saint-Calais;47.927;0.727;1.9;;;Gazole,SP95,E85;GPLc,E10,SP98;;GPLc;;;;
59210003;59210;109 Route de Furnes;Coudekerque-Branche;51.03376;2.40223;1.689;;;Gazole,SP95,SP98;E85,GPLc,E10;;E85;;;;
35230004;35230;6 avenue de l'alliance;Orgères;47.996;-1.669;1.679;;;Gazole,SP95,E10;E85,GPLc,SP98;;SP98;Ille-et-Vilaine;35;Bretagne;53
33300003;33300;155 Cours Saint-Louis;Bordeaux;44.863;-0.567;1.699;;;Gazole,SP95,E10;E85,GPLc,SP98;;E85;;;;
46400002;46400;1125 avenue Charles de Gaulle;Saint-Laurent-les-Tours;44.867;1.887;1.729;;;Gazole,SP95,E10,SP98;E85,GPLc;;E85;;;;
1500004;1500;15 Avenue de la Libération;Ambérieu-en-Bugey;45.957;5.33285;1.909;;;Gazole,SP95,SP98;E85,GPLc,E10;;E85;;;;
87230003;87230;62, Avenue Jean Jaurès;Châlus;45.661;0.986;1.879;;;Gazole,SP95,SP98;E85,GPLc,E10;;E85;;;;
24250001;24250;604 Rue de la République;Cénac-et-Saint-Julien;44.797;1.204;1.699;;;Gazole,SP95,SP98;E85,GPLc,E10;;E85;;;;
13750005;13750;535 route de cavaillon;Plan-d'Orgon;43.811;5.001;1.805;;;Gazole,SP95;E85,GPLc,E10,SP98;;E85;;;;
47290002;47290;ROUTE NATIONALE 21;Cancon;44.533;0.625;1.871;;;Gazole,SP95;E85,GPLc,E10,SP98;;E85;;;;
42160003;42160;2 Avenue de Saint-Etienne;Andrézieux-Bouthéon;45.527;4.259;1.937;;;Gazole,SP95,E10,SP98;E85,GPLc;;;Loire;42;Auvergne-Rhône-Alpes;84
85440002;85440;91 Avenue des Sables;Talmont-Saint-Hilaire;46.468;-1.628;1.798;;;Gazole,SP95;E85,GPLc,E10,SP98;E10;;Vendée;85;Pays de la Loire;52
60260001;60260;79 Avenue de la Libération;Lamorlaye;49.156;2.445;1.702;;;Gazole,SP95,E85,E10,SP98;GPLc;;GPLc;Oise;60;Hauts-de-France;32
64500004;64500;RN 10;Saint-Jean-de-Luz;43.39172;-1.65483;1.802;;;Gazole,SP95;E85,GPLc,E10,SP98;;E85;;;;
72210001;72210;Route des Trunetières;La Suze-sur-Sarthe;47.892;0.047;1.719;;;Gazole,SP95,E10,SP98;E85,GPLc;;E85;;;;
74600015;74600;637 AVENUE D'AIX LES BAINS;Annecy;45.852;6.062;1.845;;;Gazole,SP95;E85,GPLc,E10,SP98;;E85;;;;
81990003;81990;1 rue d'al causse;Puygouzon;43.89247502999999;2.16522366;1.749;;;Gazole,SP95,E85,SP98;GPLc,E10;;GPLc;;;;
62160002;62160;18 rue Casimir Beugnet;Bully-les-Mines;50.448;2.72;1.679;;;Gazole,SP95,SP98;E85,GPLc,E10;E85;;;;;
15000005;15000;16 Avenue du 4 Septembre 1870;Aurillac;44.923;2.435;1.826;;;Gazole,SP95,SP98;E85,GPLc,E10;;E85;;;;
61130001;61130;Rue Guillaume SEZNEC;Saint-Martin-du-Vieux-Bellême;48.375;0.542;1.719;;;Gazole,SP95,SP98;E85,GPLc,E10;;E85;;;;
20215001;20215;ARENA;Vescovato;42.5;9.466;1.83;;;Gazole,SP95;E85,GPLc,E10,SP98;;E85;;;;
34600002;34600;Station Service de BEL AIR;Faugères;43.562;3.181;1.729;;;Gazole,SP95;E85,GPLc,E10,SP98;;E85;;;;
20213003;20213;Station TOTAL - RN 198 - FOLELLI;Penta-di-Casinca;42.446;9.508;1.84;;;Gazole,SP95;E85,GPLc,E10,SP98;;E85;;;;
22203001;22200;Route de Corlay;Ploumagoar;48.553;-3.149;1.673;;;Gazole,SP95,E10,SP98;E85,GPLc;;;Côtes-d'Armor;22;Bretagne;53
38200004;38200;Chemin des Lones;Vienne;45.542;4.852;1.739;;;Gazole,SP95,E85,E10,SP98;GPLc;;GPLc;Isère;38;Auvergne-Rhône-Alpes;84
1400006;1400;AVENUE PIERRE MARCAULT;Châtillon-sur-Chalaronne;46.117;4.95;1.684;;;Gazole,SP95,E10;E85,GPLc,SP98;;E85;;;;
74520004;74520;50 chemin des Grands Chavannoux;Vulbens;46.105;5.959;1.732;;;Gazole,SP95,E85,E10,SP98;GPLc;;GPLc;Haute-Savoie;74;Auvergne-Rhône-Alpes;84
20113001;20113;Marinca - RD 157;Olmeto;41.69741;8.8967;1.85;;;Gazole,SP95;E85,GPLc,E10,SP98;;;Corse-du-Sud;2A;Corse;94
38500001;38500;Z.A DES BLANCHISSERIES;Voiron;45.385;5.578;1.775;;;Gazole,SP95,SP98;E85,GPLc,E10;;E85;;;;
14800005;14800;Route de Paris;Touques;49.35023;0.09044;1.739;;;Gazole,SP95,E10,SP98;E85,GPLc;;E85;;;;
78702001;78700;Rue des Belles Hâtes;Conflans-Sainte-Honorine;49.009;2.086;1.725;;;Gazole,SP95,SP98;E85,GPLc,E10;;E85;;;;
71600008;71600;le mont;Vitry-en-Charollais;46.464;4.086;1.719;;;Gazole,SP95,E85,E10,SP98;GPLc;;GPLc;Saône-et-Loire;71;Bourgogne-Franche-Comté;27
2800004;2800;1 Chemin de Danizy;La Fère;49.66023;3.37185;1.799;;;Gazole,SP95,SP98;E85,GPLc,E10;;E10;Aisne;2;Hauts-de-France;32
12260006;12260;AVENUE DU ROUERGUE;Villeneuve;44.432;2.031;1.83;;;Gazole,SP95,SP98;E85,GPLc,E10;;;Aveyron;12;Occitanie;76
56190011;56190;ZAC DE TOULAN;Ambon;47.56016876;-2.50584059;1.709;;;Gazole,SP95,E85,GPLc,SP98;E10;;E10;Morbihan;56;Bretagne;53
5600005;5600;RN 94;Eygliers;44.672;6.618;1.769;;;Gazole,SP95,E10,SP98;E85,GPLc;;GPLc;Hautes-Alpes;5;Provence-Alpes-Côte d'Azur;93
20250003;20250;RN 193 - lieu dit Pentone;Corte;42.317;9.159;1.88;;;Gazole,SP95;E85,GPLc,E10,SP98;;;Haute-Corse;2B;Corse;94
40210001;40210;500 Rue de Gouveia;Labouheyre;44.21;-0.925;1.738;;;Gazole,SP95,E85,E10;GPLc,SP98;;GPLc;;;;
54800004;54800;40 Avenue Lafayette;Jarny;49.15977;5.88111;1.789;;;Gazole,SP95,E85,GPLc,E10,SP98;;;;Meurthe-et-Moselle;54;Grand Est;44
80190003;80220;Rue charles de gaulle;Gamaches;49.983;1.562;1.689;;;Gazole,SP95,SP98;E85,GPLc,E10;;E85;;;;
93330004;93330;AVENUE JEAN JAURES;Neuilly-sur-Marne;48.865836168664;2.56269534165;1.74;;;Gazole,SP95,E10,SP98;E85,GPLc;;;Seine-Saint-Denis;93;Île-de-France;11
12270002;12270;15 route du rouergue;La Fouillade;44.229;2.038;1.849;;;Gazole,SP95,SP98;E85,GPLc,E10;;;Aveyron;12;Occitanie;76
86800003;86800;RN 151 - La Carte;Jardres;46.567;0.564;1.68;;;Gazole,SP95,E10;E85,GPLc,SP98;;E85;;;;
38150001;38150;165 RN7;Salaise-sur-Sanne;45.34;4.805;1.721;;;Gazole,SP95,E85,GPLc,E10,SP98;;;;Isère;38;Auvergne-Rhône-Alpes;84
6480002;6480;344, Chemin des Moulières;La Colle-sur-Loup;43.674;7.123;1.713;;;Gazole,SP95,E10,SP98;E85,GPLc;;E85;;;;
71170001;71170;1, AVENUE VAN DE WALLE;Chauffailles;46.204;4.336;1.729;;;Gazole,SP95,SP98;E85,GPLc,E10;;E85;;;;
21320004;21320;ZA LE PRE RABY / CREANCEY;Créancey;47.251;4.576;1.759;;;Gazole,SP95;E85,GPLc,E10,SP98;;E85;;;;
20260002;20260;Station TOTAL - relais de la balagne;Calvi;42.56429;8.75541;1.89;;;Gazole,SP95;E85,GPLc,E10,SP98;;;Haute-Corse;2B;Corse;94
8400004;8400;Rue Verte;Vouziers;49.405;4.697;1.759;;;Gazole,SP95,SP98;E85,GPLc,E10;;E85;;;;
34130003;34130;168 Avenue de la Mer;Mauguio;43.612;4.006;1.735;;;Gazole,SP95,E10,SP98;E85,GPLc;;E85;Hérault;34;Occitanie;76
71120001;71120;62 RTE DE MACON;Vendenesse-lès-Charolles;46.441492261600004;4.3097058805;1.749;;;Gazole,SP95;E85,GPLc,E10,SP98;;E85;;;;
35300002;35300;20 Place de l'Europe;Fougères;48.34735;-1.19382;1.683;;;Gazole,SP95,E85,E10,SP98;GPLc;;GPLc;Ille-et-Vilaine;35;Bretagne;53
83260001;83260;ZI Le Patrimoine;La Crau;43.154;06.07;1.689;;;Gazole,SP95,E10,SP98;E85,GPLc;;E85;;;;
42800001;42800;Rue Jean-Baptiste Berlier;Rive-de-Gier;45.52641;4.6085;1.729;;;Gazole,SP95,SP98;E85,GPLc,E10;;E85;;;;
56400006;56400;108 Rue Abbé Philippe le Gall;Auray;47.674;-3.001;1.78;;;Gazole,SP95;E85,GPLc,E10,SP98;;E85;;;;
93190002;93190;70 Boulevard Marx Dormoy;Livry-Gargan;48.9055105953;2.52200168155;1.769;;;Gazole,SP95,E10;E85,GPLc,SP98;E85;;;;;
39570008;39570;23B AVENUE MAILLOT;Montmorot;46.676;5.524;1.759;;;Gazole,SP95,E85;GPLc,E10,SP98;;GPLc;;;;
60120005;60120;88 rue d`Amiens les Hiebles ZAC NORD;Breteuil;49.641;2.279;1.709;;;Gazole,SP95,E85,E10;GPLc,SP98;;GPLc;;;;
63360001;63360;ALLEE DE FONCHENILLE;Gerzat;45.81675;3.15286;1.729;;;Gazole,SP95,E10,SP98;E85,GPLc;;E85;;;;
91230003;91230;72 Avenue Jean Jaurès;Montgeron;48.716;2.446;1.764;;;Gazole,SP95,SP98;E85,GPLc,E10;;E85;;;;
77580001;77580;26 Avenue Charles de Gaulle;Crécy-la-Chapelle;48.86;2.908;1.825;;;Gazole,SP95,SP98;E85,GPLc,E10;;E85;;;;
38300020;38300;3 avenue du rivet;Bourgoin-Jallieu;45.584;5.297;1.699;;;Gazole,SP95,SP98;E85,GPLc,E10;;E85;;;;
77000003;77000;RUE DES TROIS RODES;Vaux-le-Pénil;48.52528;2.69402349348;1.719;;;Gazole,SP95,E10,SP98;E85,GPLc;;E85;;;;
69100001;69100;145, Rue Anatole France;Villeurbanne;45.769;4.884;1.74;;;Gazole,SP95,E10,SP98;E85,GPLc;;E85;;;;
54600002;54600;31 boulevard de Baudricourt;Villers-lès-Nancy;48.675;6.163;1.754;;;Gazole,SP95,E10;E85,GPLc,SP98;;E85;;;;
28130002;28130;Route de Gallardon;Hanches;48.593;1.678;1.655;;;Gazole,SP95,E85,GPLc,E10,SP98;;;;Eure-et-Loir;28;Centre-Val de Loire;24
83140001;83140;Avenue de la Mer;Six-Fours-les-Plages;43.103;5.821;1.729;;;Gazole,SP95,E85,E10,SP98;GPLc;;GPLc;Var;83;Provence-Alpes-Côte d'Azur;93
2880001;2880;Rue du Stade;Crouy;49.39825;3.35632;1.699;;;Gazole,SP95,GPLc,E10,SP98;E85;;E85;Aisne;2;Hauts-de-France;32
33700001;33700;52 avenue de la somme;Mérignac;44.83;-0.654;1.7;;;Gazole,SP95,E10,SP98;E85,GPLc;;E85;;;;
10410003;10410;103 avenue du Général de Gaulle;Villechétif;48.297951133716005;4.1336364178578995;1.699;;;Gazole,SP95,E85,GPLc,E10,SP98;;;;Aube;10;Grand Est;44
1460001;1460;68 Rue du Jura;Montréal-la-Cluse;46.17225;5.57729;1.699;;;Gazole,SP95,SP98;E85,GPLc,E10;;E85;;;;
29490002;29490;Rue Anne de Bretagne;Guipavas;48.436;-4.405;1.669;;;Gazole,SP95,E85,E10;GPLc,SP98;;GPLc;;;;
68000015;68000;112 Route de Rouffach;Colmar;48.058;7.334;1.709;;;Gazole,SP95,SP98;E85,GPLc,E10;;E85;;;;
60000011;60000;9 Avenue Montaigne;Beauvais;49.41;2.109;1.686;;;Gazole,SP95,E85,GPLc,SP98;E10;;E10;Oise;60;Hauts-de-France;32
24000007;24000;rue du moulin neuf CC le Privilège;Périgueux;45.200303;0.694478;1.693;;;Gazole,SP95,E85,E10;GPLc,SP98;;GPLc;;;;
13620004;13620;55 AVENUE DRAIO DE LA MAR;Carry-le-Rouet;43.33;5.139;1.829;;;Gazole,SP95,E85,SP98;GPLc,E10;;GPLc;;;;
29500003;29500;LE ROUILLEN - La Salle Verte;Ergué-Gabéric;47.999;-4.053;1.679;;;Gazole,SP95,SP98;E85,GPLc,E10;;E85;;;;
13545001;13546;1175 Rue Guillaume du Vair;Aix-en-Provence;43.506;5.399;1.731;;;Gazole,SP95,E85,GPLc,E10,SP98;;;;Bouches-du-Rhône;13;Provence-Alpes-Côte d'Azur;93
36100002;36100;Rue de la Limoise;Issoudun;46.957;2.003;1.687;;;Gazole,SP95,E85,GPLc,E10,SP98;;;;Indre;36;Centre-Val de Loire;24
38230003;38230;Rue des Ardennes;Tignieu-Jameyzieu;45.745;5.183;1.694;;;Gazole,SP95,E85,E10,SP98;GPLc;;GPLc;Isère;38;Auvergne-Rhône-Alpes;84
29450001;29450;ZA du Pont Bleu;Sizun;48.411;-4.087;1.769;;;Gazole,SP95,SP98;E85,GPLc,E10;;E85;;;;
12500002;12500;Boulevard de Guizard;Espalion;44.524;2.765;1.809;;;Gazole,SP95;E85,GPLc,E10,SP98;;E85;;;;
34620002;34620;43 avenue de béziers;Puisserguier;43.36678;3.04868;1.802;;;Gazole,SP95,E85,SP98;GPLc,E10;;GPLc;;;;
22250001;22250;Rue du Pilaga;Broons;48.315;-2.25;1.699;;;Gazole,SP95,SP98;E85,GPLc,E10;;E85;;;;
45300003;45300;Avenue du 11 Novembre;Pithiviers;48.18391;2.25072;1.699;;;Gazole,SP95,GPLc,E10,SP98;E85;;;Loiret;45;Centre-Val de Loire;24
77160002;77160;Avenue de la Voulzie;Provins;48.548;3.292;1.69;;;Gazole,SP95,E85,E10,SP98;GPLc;;GPLc;Seine-et-Marne;77;Île-de-France;11
62221001;62221;87, rue Jean Monnet;Noyelles-sous-Lens;50.431;2.864;1.651;;;Gazole,SP95,E10,SP98;E85,GPLc;;E85;;;;
20248001;20248;MACINAGGIO;Rogliano;42.956669635916;9.4453596189195;1.86;;;Gazole,SP95;E85,GPLc,E10,SP98;;E85;;;;
56760003;56760;Rue Pont Cano;Pénestin;47.482;-2.471;1.709;;;Gazole,SP95,SP98;E85,GPLc,E10;;;Morbihan;56;Bretagne;53
59198002;59198;2 RUE DE VALENCIENNES;Haspres;50.259515450896;3.4183683846443;1.88;;;Gazole,SP95,SP98;E85,GPLc,E10;;E85;;;;
56400007;56400;ZA de Kerbois;Auray;47.663;-3.006;1.666;;;Gazole,SP95,SP98;E85,GPLc,E10;;E85;;;;
20140001;20140;RTE N 196;Petreto-Bicchisano;41.78547;8.97933;1.869;;;Gazole,SP95;E85,GPLc,E10,SP98;;E85;Corse-du-Sud;2A;Corse;94
24210004;24210;837 Avenue de la Libération;Thenon;45.140782119426;1.0699189888855;1.77;;;Gazole,SP95,SP98;E85,GPLc,E10;;E85;;;;
68920001;68920;1 Faubourg des Vosges;Wintzenheim;48.071;7.297;1.708;;;Gazole,SP95,E10,SP98;E85,GPLc;;E85;;;;
74140006;74140;LES BLOSSONNIERS ROUTE DES VOIRONS;Veigy-Foncenex;46.2702266;6.2570071;1.74;;;Gazole,SP95,SP98;E85,GPLc,E10;;E85;;;;
26300008;26300;1, Av Dauphiné-Provence;Alixan;44.976;5.028;1.799;;;Gazole,SP95;E85,GPLc,E10,SP98;;;Drôme;26;Auvergne-Rhône-Alpes;84
26300010;26300;Route du Stade;Chatuzange-le-Goubet;45.0;5.089;1.719;;;Gazole,SP95,SP98;E85,GPLc,E10;;E85;;;;
65429001;65420;Route de Pau;Ibos;43.239;0.018;1.872;;;Gazole,SP95,E85,GPLc,E10,SP98;;;;Hautes-Pyrénées;65;Occitanie;76
31290004;31290;RN.113;Avignonet-Lauragais;43.369;1.775;1.828;;;Gazole,SP95;E85,GPLc,E10,SP98;;E85;;;;
33220001;33220;113 Avenue de Bordeaux;Port-Sainte-Foy-et-Ponchapt;44.845;0.181;1.663;;;Gazole,SP95,E10,SP98;E85,GPLc;;E85;;;;
69007012;69007;44 AVENUE LECLERC;Lyon;45.737;4.824;1.809;;;Gazole,SP95,GPLc,SP98;E85,E10;;E85;;;;
80220001;80220;90 RUE CHARLES DE GAULLE;Gamaches;49.984;1.574;1.815;;;Gazole,SP95;E85,GPLc,E10,SP98;;E85;;;;
50570002;50570;RUE DE LA CHAPONIERE;Marigny-Le-Lozon;49.09916;-1.24241;1.697;;;Gazole,SP95,SP98;E85,GPLc,E10;;;Manche;50;Normandie;28
2450003;2450;16 RUE DU 2 SEPTEMBRE 1944;La Neuville-lès-Dorengt;49.9772968;3.6768151000000002;1.695;;;Gazole,SP95,SP98;E85,GPLc,E10;E85;;;;;
40160005;40160;593 AVENUE HENRI GUILLAUMET;Parentis-en-Born;44.353;-1.08;1.699;;;Gazole,SP95,E10,SP98;E85,GPLc;;E85;;;;
10600002;10300;4 Boulevard de l'Ouest;La Chapelle-Saint-Luc;48.305;4.027;1.722;;;Gazole,SP95,GPLc,E10,SP98;E85;;E85;Aube;10;Grand Est;44
27380003;27380;RUE DU GENERAL DE GAULLE;Fleury-sur-Andelle;49.365413476955;1.3499681837245001;1.719;;;Gazole,SP95,SP98;E85,GPLc,E10;;;Eure;27;Normandie;28
54920002;54920;35 route nationale;Villers-la-Montagne;49.471;5.821;1.85;;;Gazole,SP95;E85,GPLc,E10,SP98;;;Meurthe-et-Moselle;54;Grand Est;44
88220003;88220;18 Rue de la Vallée de l'Aitre;Xertigny;48.045;6.398;1.749;;;Gazole,SP95,E10;E85,GPLc,SP98;;E85;;;;
20218007;20218;RT20;Morosaglia;42.435187623916;9.2997653603329;1.799;;;Gazole,SP95;E85,GPLc,E10,SP98;;;Haute-Corse;2B;Corse;94
83980002;83980;7 AVENUE DES COMMANDOS D'AFRIQUE;Le Lavandou;43.137;6.365;1.84;;;Gazole,SP95;E85,GPLc,E10,SP98;;;Var;83;Provence-Alpes-Côte d'Azur;93
20620005;20620;RN 193;Biguglia;42.621;9.437;1.85;;;Gazole,SP95,GPLc;E85,E10,SP98;;E85;;;;
74440002;74440;382 Avenue de Thezières;Taninges;46.102;6.59;1.979;;;Gazole,SP95,SP98;E85,GPLc,E10;;E85;;;;
5400004;5400;ROUTE DE GAP;Veynes;44.5373983;5.834620999999999;1.779;;;Gazole,SP95;E85,GPLc,E10,SP98;;E85;;;;
91380007;91380;118 Rue de la Passerelle;Chilly-Mazarin;48.699;2.321;1.719;;;Gazole,SP95,SP98;E85,GPLc,E10;E85;;;;;
16150004;16150;RN 141;Exideuil-sur-Vienne;45.87221560482;0.68209246867894;1.79;;;Gazole,SP95;E85,GPLc,E10,SP98;;E85;;;;
62730002;62730;rue pasteur;Marck;50.946;1.952;1.749;;;Gazole,SP95,SP98;E85,GPLc,E10;;E85;;;;
39100010;39100;Boulevard des frères Lumière;Dole;47.098;5.5;1.899;;;Gazole,SP95,E85;GPLc,E10,SP98;GPLc;SP98;Jura;39;Bourgogne-Franche-Comté;27
41360005;41360;5 bis avenue de la Braye;Savigny-sur-Braye;47.881;0.808;1.719;;;Gazole,SP95,SP98;E85,GPLc,E10;;E85;;;;
29228001;29200;Kergaradec - Porte de Gouesnou;Gouesnou;48.43;-4.472;1.669;;;Gazole,SP95,E85,E10;GPLc,SP98;;GPLc;;;;
19100009;19100;Impasse du Pilou;Malemort;45.158;1.563;1.704;;;Gazole,SP95,E85,E10;GPLc,SP98;;GPLc;;;;
91630001;91630;Rue de la gare;Marolles-en-Hurepoix;48.56445;2.29216;1.722;;;Gazole,SP95,E85,E10,SP98;GPLc;;GPLc;Essonne;91;Île-de-France;11
38300009;38300;178 Route de Lyon;Bourgoin-Jallieu;45.59;5.244;1.739;;;Gazole,SP95,E10;E85,GPLc,SP98;E85;;;;;
22230003;22230;Rue Chanoine le Texier;Merdrignac;48.19538;-2.41743;1.719;;;Gazole,SP95,E10,SP98;E85,GPLc;;E85;;;;
20213004;20213;Rt10;Penta-di-Casinca;42.445;9.508;1.81;;;Gazole,SP95;E85,GPLc,E10,SP98;;E85;;;;
19130002;19130;AVENUE RAYMOND POINCARE;Objat;45.259;1.413;1.669;;;Gazole,SP95,SP98;E85,GPLc,E10;;E85;;;;
29170005;29170;LIEU DIT MANER KER ELO;Fouesnant;47.895;-4.017;1.699;;;Gazole,SP95,SP98;E85,GPLc,E10;;E85;;;;
61000001;61000;38 Route de Fresnay;Saint-Germain-du-Corbéis;48.418;0.076;1.705;;;Gazole,SP95,SP98;E85,GPLc,E10;;E85;;;;
42000017;42000;27 Boulevard Fauriat;Saint-Étienne;45.446;4.407;1.839;;;Gazole,SP95,E85,E10;GPLc,SP98;;GPLc;;;;
79150002;79150;26 av camille jouffrault - Argenton les vallées;Argentonnay;46.985301108358996;-0.45314288360594995;1.729;;;Gazole,SP95,SP98;E85,GPLc,E10;;;Deux-Sèvres;79;Nouvelle-Aquitaine;75
20220002;20220;29, Ave Pdt Paul Doumer;L'Île-Rousse;42.632;8.945;1.819;;;Gazole,SP95;E85,GPLc,E10,SP98;;E85;;;;
85440001;85440;86 AVENUE DES SABLES;Talmont-Saint-Hilaire;46.469;-1.629;1.669;;;Gazole,SP95,E10,SP98;E85,GPLc;;E85;;;;
37390002;37390;1 rue rené Cassin;Notre-Dame-d'Oé;47.439;0.699;1.715;;;Gazole,SP95,E85,SP98;GPLc,E10;;GPLc;;;;
48600003;48600;ROUTE DE ST CHELY;Grandrieu;44.784;3.636;1.789;;;Gazole,SP95,E85;GPLc,E10,SP98;;;Lozère;48;Occitanie;76
31410001;31410;Grand'Rue;Longages;43.355;1.239;1.83;;;Gazole,SP95;E85,GPLc,E10,SP98;;E85;;;;
43230002;43230;11 AVENUE DE LA GARE;Paulhaguet;45.2087954502;3.50687903911;1.724;;;Gazole,SP95,SP98;E85,GPLc,E10;;E85;;;;
25290005;25290;21 AVENUE DE LATTRE DE TASSIGNY;Ornans;47.105;6.131;1.799;;;Gazole,SP95,SP98;E85,GPLc,E10;;E85;;;;
7120001;7120;Route de Vallon Pont d'Arc;Ruoms;44.4434055985;4.348132517390001;1.729;;;Gazole,SP95,E85,E10,SP98;GPLc;;GPLc;Ardèche;7;Auvergne-Rhône-Alpes;84
40630002;40630;210 RUE VICTOR HUGO;Sabres;44.147180104072994;-0.7373947457494101;1.99;;;Gazole,SP95;E85,GPLc,E10,SP98;;;Landes;40;Nouvelle-Aquitaine;75
45500006;45500;Rue du 11 Novembre;Poilly-lez-Gien;47.678;2.594;1.739;;;Gazole,SP95,SP98;E85,GPLc,E10;;E85;;;;
78320001;78320;3 Rue de Versailles;Le Mesnil-Saint-Denis;48.745;1.963;1.829;;;Gazole,SP95;E85,GPLc,E10,SP98;;E85;;;;
30360001;30630;ROUTE DE BARJAC;Cornillon;44.219;4.484;1.725;;;Gazole,SP95;E85,GPLc,E10,SP98;;E85;;;;
1600001;1700;Rue du Figuier;Miribel;45.828;4.972;1.732;;;Gazole,SP95,E85,E10,SP98;GPLc;;;Ain;1;Auvergne-Rhône-Alpes;84
27460001;27460;ROUTE DE LYONS;Igoville;49.319;1.157;1.729;;;Gazole,SP95,E85,GPLc,E10;SP98;;SP98;Eure;27;Normandie;28
85100003;85100;33 Avenue d'Aquitaine;Les Sables-d'Olonne;46.4989504;-1.7773459;1.798;;;Gazole,SP95;E85,GPLc,E10,SP98;;E85;;;;
38980001;38980;497 Route de Châtenay;Viriville;45.321;5.207;1.88;;;Gazole,SP95,SP98;E85,GPLc,E10;;E85;;;;
52600001;52600;46 Rue de Langres;Chalindrey;47.804;5.426;1.829;;;Gazole,SP95,SP98;E85,GPLc,E10;;E85;;;;
9300005;9300;RUE DU 8 MAI 1945;Lavelanet;42.928;1.858;1.792;;;Gazole,SP95,SP98;E85,GPLc,E10;;E85;;;;
56270003;56270;Rue de Saint-Bieuzy;Ploemeur;47.734;-3.43;1.686;;;Gazole,SP95,SP98;E85,GPLc,E10;;E85;;;;
1590001;1590;18, Rue du 21 Juillet 1944;Dortan;46.322;5.656;1.739;;;Gazole,SP95,SP98;E85,GPLc,E10;;E85;;;;
39230003;39230;Route de Dole;Toulouse-le-Château;46.82592;5.57429;1.829;;;Gazole,SP95,SP98;E85,GPLc,E10;;;Jura;39;Bourgogne-Franche-Comté;27
95270004;95270;RN 16;Épinay-Champlâtreux;49.085;2.416;1.829;;;Gazole,SP95,SP98;E85,GPLc,E10;;E85;;;;
89330002;89330;2 Avenue Pasteur;Saint-Julien-du-Sault;48.032;3.304;1.919;;;Gazole,SP95;E85,GPLc,E10,SP98;;E85;;;;
57510002;57510;Rue de Forbach;Puttelange-aux-Lacs;49.059;6.921;1.749;;;Gazole,SP95,E10;E85,GPLc,SP98;;E85;;;;
55270002;55270;Porte de Cheppy;Varennes-en-Argonne;49.228469477017995;5.04075420096;1.72;;;Gazole,SP95,SP98;E85,GPLc,E10;;E85;;;;
92160001;92160;134 Rue Pascal;Antony;48.74;2.315;1.771;;;Gazole,SP95,GPLc,E10,SP98;E85;;E85;Hauts-de-Seine;92;Île-de-France;11
40200002;40200;52 Avenue de Bordeaux;Mimizan;44.205;-1.22;1.699;;;Gazole,SP95,E10,SP98;E85,GPLc;;E85;;;;
56550003;56550;ROUTE DE L'OCEAN;Locoal-Mendon;47.71;-3.106;1.699;;;Gazole,SP95,SP98;E85,GPLc,E10;;E85;;;;
58290001;58290;PLACE DU CHAMP DE FOIRE;Moulins-Engilbert;46.983;3.808;1.799;;;Gazole,SP95,SP98;E85,GPLc,E10;;E85;;;;
69340001;69340;AVENUE DU CHATER;Francheville;45.735;4.775;1.747;;;Gazole,SP95,E10,SP98;E85,GPLc;;E85;;;;
89340004;89340;150 RN6 le petit Villeblevin;Villeblevin;48.336;03.08;1.789;;;Gazole,SP95,GPLc,SP98;E85,E10;;E85;;;;
83440006;83440;497 ROUTE DEPARTEMENTAL 562;Callian;43.607;6.749;1.799;;;Gazole,SP95,E85,SP98;GPLc,E10;;GPLc;;;;
76680001;76680;Avenue Emmanuel Brion;Saint-Saëns;49.67;1.284;1.789;;;Gazole,SP95,SP98;E85,GPLc,E10;;E85;;;;
81430001;81430;Route de Millau;Villefranche-d'Albigeois;43.89489;2.34154;1.87;;;Gazole,SP95;E85,GPLc,E10,SP98;;E85;;;;
56230002;56230;ZA de Lenruit;Questembert;47.664;-2.452;1.82;;;Gazole,SP95;E85,GPLc,E10,SP98;;E85;;;;
64122001;64122;RN 10;Urrugne;43.375;-1.679;1.699;;;Gazole,SP95,E10,SP98;E85,GPLc;;E85;;;;
40420003;40420;RN134 - Route de Sabres;Garein;44.061722244227;-0.66240854479538;1.85;;;Gazole,SP95;E85,GPLc,E10,SP98;;;Landes;40;Nouvelle-Aquitaine;75
14123010;14123;2 RUE DE L'INDUSTRIE;Cormelles-le-Royal;49.15769717388;-0.32601015714723;1.739;;;Gazole,SP95,SP98;E85,GPLc,E10;;E85;;;;
27700001;27700;50 Avenue de la République;Les Andelys;49.2441711809;1.4081919423;1.697;;;Gazole,SP95,SP98;E85,GPLc,E10;;E85;;;;
41360003;41360;ROUTE DU MANS;Épuisay;47.9018904008;0.9175049294909999;1.87;;;Gazole,SP95,SP98;E85,GPLc,E10;;E85;;;;
7260001;7260;Les Beaumes;Joyeuse;44.479;4.248;1.775;;;Gazole,SP95,SP98;E85,GPLc,E10;;E85;;;;
71140003;71140;6 route de Digoin;Bourbon-Lancy;46.628;3.736;1.749;;;Gazole,SP95,SP98;E85,GPLc,E10;;E85;;;;
78840004;78840;rue des voies vaches;Freneuse;49.037;1.593;1.729;;;Gazole,SP95,SP98;E85,GPLc,E10;;E85;;;;
4100001;4204;9 avenue des Plantiers BP201;Sisteron;44.188166608100005;5.94679759778;1.769;;;Gazole,SP95,E10,SP98;E85,GPLc;;E85;;;;
16110003;16110;ROUTE DE MANSLE;Rivières;45.74695;0.38339;1.639;;;Gazole,SP95,SP98;E85,GPLc,E10;;E85;;;;
62510002;62510;Avenue Georges Brassens;Arques;50.736;2.28;1.657;;;Gazole,SP95,SP98;E85,GPLc,E10;;E85;;;;
14520002;14520;45 ROUTE D'OMAHA;Aure sur Mer;49.34761;-0.80672;1.85;;;Gazole,SP95;E85,GPLc,E10,SP98;;E85;;;;
9100001;9100;Route de Mirepoix;Pamiers;43.103;1.631;1.73;;;Gazole,SP95,E85,E10;GPLc,SP98;;GPLc;;;;
50300006;50300;22 Le Bourg Robert;Ponts;48.709;-1.319;1.829;;;Gazole,SP95;E85,GPLc,E10,SP98;E85;;;;;
19270004;19270;LA CROIX DE FER;Saint-Pardoux-l'Ortigier;45.310634037541;1.5625461874608;1.91;;;Gazole,SP95,SP98;E85,GPLc,E10;;E85;;;;
54830001;54830;18 Rue du Général Leclerc;Gerbéviller;48.497;6.514;1.73;;;Gazole,SP95,SP98;E85,GPLc,E10;;E85;;;;
44380001;44380;1 AVENUE DU HECQUEUX;Pornichet;47.258;-2.318;1.699;;;Gazole,SP95,SP98;E85,GPLc,E10;;E85;;;;
28400002;28400;route de Chartres;Arcisses;48.331;0.833;1.709;;;Gazole,SP95,E85,GPLc,E10,SP98;;;;Eure-et-Loir;28;Centre-Val de Loire;24
31600006;31600;1 BIS BOULEVARD JOFFRERY;Muret;43.461;1.326;1.711;;;Gazole,SP95,E10;E85,GPLc,SP98;;E85;;;;
67620001;67620;15 Rue de Sessenheim;Soufflenheim;48.82224;7.96612;1.795;;;Gazole,SP95;E85,GPLc,E10,SP98;;E85;;;;
34120001;34120;26 AVENUE DE VERDUN;Pézenas;43.454;3.421;1.827;;;Gazole,SP95;E85,GPLc,E10,SP98;;E85;;;;
87400004;87400;EYCOUVEAUX;Saint-Léonard-de-Noblat;45.861;1.515;1.9;;;Gazole,SP95,SP98;E85,GPLc,E10;;E85;;;;
20230006;20230;RN 198;San-Nicolao;42.372066050321;9.5297640167823;1.83;;;Gazole,SP95;E85,GPLc,E10,SP98;;E85;;;;
48600002;48600;Route de Grandieu;Bel-Air-Val-d'Ance;44.85347;3.66108;1.789;;;Gazole,SP95,SP98;E85,GPLc,E10;;;Lozère;48;Occitanie;76
56130002;56130;routes de nantes;Nivillac;47.53507;-2.28322;1.709;;;Gazole,SP95,SP98;E85,GPLc,E10;;E10;Morbihan;56;Bretagne;53
2300002;2300;CHEMIN DEPARTEMENTAL 937;Autreville;49.591;3.234;1.699;;;Gazole,SP95,SP98;E85,GPLc,E10;;;Aisne;2;Hauts-de-France;32
77230009;77230;5 avenue des deux Moulins;Saint-Mard;49.041;2.686;1.749;;;Gazole,SP95,E85,E10,SP98;GPLc;;GPLc;Seine-et-Marne;77;Île-de-France;11
26220001;26220;181 Route de Montélimar;Dieulefit;44.521;5.056;1.759;;;Gazole,SP95,SP98;E85,GPLc,E10;;E85;;;;
29160004;29160;TAL AR GROAS;Crozon;48.2482909;-4.4194473;1.678;;;Gazole,SP95,E85,E10;GPLc,SP98;;GPLc;;;;
1560001;1560;Route de Pont-de-Vaux;Saint-Trivier-de-Courtes;46.459;5.075;1.672;;;Gazole,SP95,SP98;E85,GPLc,E10;;E85;;;;
78120003;78120;RN10 CENTRE COMMERCIAL DU BEL AIR;Rambouillet;48.625;1.83;1.779;;;Gazole,SP95,GPLc,E10,SP98;E85;;E85;Yvelines;78;Île-de-France;11
74180001;74490;123 ROUTE DE MONTRENAZ;Saint-Jeoire;46.135;6.461;1.709;;;Gazole,SP95,E10;E85,GPLc,SP98;;E85;;;;
13340001;13340;LE PLAN;Rognac;43.492;5.229;1.713;;;Gazole,SP95,E85,SP98;GPLc,E10;;GPLc;;;;
90300003;90300;21 Rue Aristide Briand;Offemont;47.659472600680004;6.867185855783299;1.749;;;Gazole,SP95,E10;E85,GPLc,SP98;;E85;;;;
59163001;59163;avenue de la liberté;Condé-sur-l'Escaut;50.452;3.591;1.669;;;Gazole,SP95,E10,SP98;E85,GPLc;;E85;;;;
85400005;85400;2 Route de Fontenay;Luçon;46.461;-1.137;1.669;;;Gazole,SP95,GPLc,E10;E85,SP98;;E85;;;;
63210003;63210;Route d'Herment;Rochefort-Montagne;45.685;2.796;1.775;;;Gazole,SP95,E85;GPLc,E10,SP98;;GPLc;;;;
27370001;27370;Rue de la République;Amfreville-Saint-Amand;49.21;0.937;1.762;;;Gazole,SP95,GPLc;E85,E10,SP98;;E85;;;;
95500006;95500;1 Rue Georges Pompidou;Gonesse;48.98940867009;2.433548852432;1.709;;;Gazole,SP95,E85,E10,SP98;GPLc;;GPLc;Val-d'Oise;95;Île-de-France;11
3100005;3100;Avenue Pierre Villon;Montluçon;46.353;2.587;1.755;;;Gazole,SP95,SP98;E85,GPLc,E10;;E85;;;;
60130001;60130;Z.I. Nord;Saint-Just-en-Chaussée;49.512;2.431;1.701;;;Gazole,SP95,E85,SP98;GPLc,E10;;GPLc;;;;
12150007;12150;37 AVENUE DE PARIS;Sévérac d'Aveyron;44.329328023608994;3.069316338544;1.729;;;Gazole,SP95,SP98;E85,GPLc,E10;;E85;;;;
60280001;60280;6 Avenue de l'Europe;Venette;49.408;2.781;1.74;;;Gazole,SP95,E85,GPLc,E10,SP98;;;;Oise;60;Hauts-de-France;32
31560003;31560;4 Avenue de Cocagne;Nailloux;43.365899000000006;1.6224820000000002;1.751;;;Gazole,SP95,SP98;E85,GPLc,E10;;E85;;;;
85480001;85480;58 AVENUE DU MOULIN;Bournezeau;46.638142;-1.179617;1.801;;;Gazole,SP95;E85,GPLc,E10,SP98;;E85;;;;
86500002;86500;2 AVENUE DE PROVENCE;Montmorillon;46.419;0.855;1.729;;;Gazole,SP95,E85,GPLc,E10,SP98;;;;Vienne;86;Nouvelle-Aquitaine;75
43290001;43290;9 av Cévennes;Montfaucon-en-Velay;45.18157;4.31425;1.8;;;Gazole,SP95;E85,GPLc,E10,SP98;;E85;;;;
4170002;4170;RN 202;Saint-André-les-Alpes;43.967;6.507;1.92;;;Gazole,SP95,SP98;E85,GPLc,E10;;;Alpes-de-Haute-Provence;4;Provence-Alpes-Côte d'Azur;93
7290000;7290;Route d'Annonay;Lalouvesc;45.121;4.548;1.744;;;Gazole,SP95;E85,GPLc,E10,SP98;;E85;;;;
55700006;55700;AVENUE DE VERDUN;Stenay;49.483853119268;5.2033975146027;1.686;;;Gazole,SP95,SP98;E85,GPLc,E10;;E85;;;;
22600005;22600;z a des parpareux;Loudéac;48.179;-2.68311;1.96;;;Gazole,SP95,SP98;E85,GPLc,E10;;E85;;;;
50760001;50760;132 RUE ST THOMAS;Barfleur;49.666;-1.27;1.718;;;Gazole,SP95,E10;E85,GPLc,SP98;;E85;;;;
8210001;8210;Avenue de la Paix;Mouzon;49.61023;5.07788;1.828;;;Gazole,SP95,SP98;E85,GPLc,E10;;E85;;;;
56200004;56200;ZAC du RAHUN;La Gacilly;47.778788439912006;-2.1260273830208;1.651;;;Gazole,SP95,SP98;E85,GPLc,E10;;E85;;;;
8230001;8230;Route de la Petite Chapelle;Rocroi;49.9279955609;4.52567373636;1.726;;;Gazole,SP95,SP98;E85,GPLc,E10;;E85;;;;
71370003;71370;Rue du Pranet;Ouroux-sur-Saône;46.70461;4.96891;1.729;;;Gazole,SP95,SP98;E85,GPLc,E10;;E85;;;;
52600002;52600;15 Rue Camille Perfetti;Haute-Amance;47.841;5.549;1.829;;;Gazole,SP95,SP98;E85,GPLc,E10;;E85;;;;
56890003;56890;Coet digo;Saint-Avé;47.682038768502;-2.7645718134344004;1.709;;;Gazole,SP95,E10,SP98;E85,GPLc;GPLc;E85;Morbihan;56;Bretagne;53
21300004;21300;AVENUE ROLAND CARRAZ;Chenôve;47.29307;5.01616;1.739;;;Gazole,SP95,SP98;E85,GPLc,E10;;E85;;;;
14320003;14320;RN 162;Saint-Martin-de-Fontenay;49.114;-0.374;1.677;;;Gazole,SP95,SP98;E85,GPLc,E10;;E85;;;;
93290003;93290;AV GILBERT BERGER;Tremblay-en-France;48.9467460327;2.57048818541;1.745;;;Gazole,SP95,E10;E85,GPLc,SP98;;E85;;;;
58320001;58320;ROUTE DE PARIS;Pougues-les-Eaux;47.07736;3.09879;1.759;;;Gazole,SP95,SP98;E85,GPLc,E10;;E85;;;;
69260007;69620;244, Chemin Rivière de la Cour;Val d'Oingt;45.922;4.58;1.699;;;Gazole,SP95,E10;E85,GPLc,SP98;;E85;;;;
23400001;23400;Route de Bénévent;Bourganeuf;45.96;1.76;1.714;;;Gazole,SP95,SP98;E85,GPLc,E10;;E85;;;;
47500007;47500;ZONE DU BOSCLA;Saint-Vite;44.476;0.951;1.68;;;Gazole,SP95,E85,E10,SP98;GPLc;;GPLc;Lot-et-Garonne;47;Nouvelle-Aquitaine;75
59264001;59264;ECHANGEUR 24;Onnaing;50.387312800000004;3.5987362;1.649;;;Gazole,SP95,E85,E10,SP98;GPLc;;GPLc;Nord;59;Hauts-de-France;32
91800010;91800;01 HAMEAU LACHAMBAUDIE;Brunoy;48.697546041114;2.5067217962489;1.77;;;Gazole,SP95,SP98;E85,GPLc,E10;;E85;;;;
20090014;20000;109 Cours Napoleon;Ajaccio;41.928;8.739;1.841;;;Gazole,SP95;E85,GPLc,E10,SP98;;E85;;;;
80370002;80370;11 Rue de Canaples;Bernaville;50.131;2.172;1.749;;;Gazole,SP95,E85;GPLc,E10,SP98;;GPLc;;;;
58190001;58190;AVENUE DE LA FRINGALE;Tannay;47.367;3.587;1.749;;;Gazole,SP95,SP98;E85,GPLc,E10;;E85;;;;
87190001;87190;Avenue Jules Courivaud;Magnac-Laval;46.215;1.166;1.659;;;Gazole,SP95,E10;E85,GPLc,SP98;;E85;;;;
77508002;77410;Route Nationale 3;Claye-Souilly;48.944;2.681;1.769;;;Gazole,SP95,E85,E10,SP98;GPLc;;GPLc;Seine-et-Marne;77;Île-de-France;11
12210001;12210;Espace Les Cayres;Laguiole;44.683;2.851;1.727;;;Gazole,SP95,SP98;E85,GPLc,E10;;E10;Aveyron;12;Occitanie;76
81300006;81300;ROND POINT RHIN ET DANUBE;Graulhet;43.761;1.97;1.799;;;Gazole,SP95,E85,E10,SP98;GPLc;;GPLc;Tarn;81;Occitanie;76
7190001;7190;Grande Rue;Saint-Sauveur-de-Montagut;44.8216;4.58402;1.899;;;Gazole,SP95,SP98;E85,GPLc,E10;;E85;;;;
63480001;63480;ZA LA DINASSE;Marat;45.659;3.661;1.782;;;Gazole,SP95,E85;GPLc,E10,SP98;;GPLc;;;;
29100004;29100;zone du DREVERS;Douarnenez;48.082;-4.317;1.664;;;Gazole,SP95,E10,SP98;E85,GPLc;;E85;;;;
35490003;35490;LA CROIX COUVERTE;Vieux-Vy-sur-Couesnon;48.329081866100005;-1.5241244193999999;1.669;;;Gazole,SP95,E85,E10;GPLc,SP98;;GPLc;;;;
67920001;67920;2 Rue de Wittisheim;Sundhouse;48.25235;7.59527;1.689;;;Gazole,SP95,SP98;E85,GPLc,E10;;E85;;;;
40990002;40990;226 Rue Maurice Menton;Saint-Paul-lès-Dax;43.732;-1.045;1.715;;;Gazole,SP95,E85,E10;GPLc,SP98;;GPLc;;;;
11000007;11000;Route de Toulouse;Carcassonne;43.225;2.329;1.799;;;Gazole,SP95,E10,SP98;E85,GPLc;;E85;;;;
33380004;33380;1 rue Jean Marie Pelt - CS50510;Mios;44.617;-0.918;1.733;;;Gazole,SP95,E10,SP98;E85,GPLc;;E85;;;;
36170001;36170;23 ROUTE D'ARGENTON;Saint-Benoît-du-Sault;46.44388;1.3953;1.799;;;Gazole,SP95,E10,SP98;E85,GPLc;;E85;;;;
19200006;19200;8 Place de la Victoire;Ussel;45.555;2.316;1.789;;;Gazole,SP95;E85,GPLc,E10,SP98;;E85;;;;
95280001;95280;Les versants de l'Hautil;Triel-sur-Seine;49.0;2.016;1.705;;;Gazole,SP95,SP98;E85,GPLc,E10;;E85;;;;
89520001;89520;Route de Ouanne;Saint-Sauveur-en-Puisaye;47.62;3.198;1.749;;;Gazole,SP95,SP98;E85,GPLc,E10;E85;;;;;
8170004;8170;Station Service Ste Anne RN51;Fumay;49.995;4.697;1.756;;;Gazole,SP95,E10;E85,GPLc,SP98;;E85;;;;
17330001;17330;7 RN;Villeneuve-la-Comtesse;46.09855;-0.50192;1.93;;;Gazole,SP95;E85,GPLc,E10,SP98;;;Charente-Maritime;17;Nouvelle-Aquitaine;75
47000001;47300;92 Avenue Henri BARBUSSE;Villeneuve-sur-Lot;44.398;0.729;1.77;;;Gazole,SP95;E85,GPLc,E10,SP98;;E85;;;;
75010002;75010;1 Boulevard de la Chapelle;Paris;48.8842;2.36446;1.899;;;Gazole,SP95,SP98;E85,GPLc,E10;;E85;;;;
52130003;52130;Rue de la Madeleine;Wassy;48.504;4.944;1.829;;;Gazole,SP95,SP98;E85,GPLc,E10;;E85;;;;
42210003;42210;444 route de Saint Etienne;Montrond-les-Bains;45.63477;4.23902;1.859;;;Gazole,SP95,E85,E10;GPLc,SP98;;;Loire;42;Auvergne-Rhône-Alpes;84
11500005;11500;ZA LA PLAGE SUD;Quillan;42.893;2.194;1.759;;;Gazole,SP95,E85;GPLc,E10,SP98;;GPLc;;;;
42540002;42540;110 AVENUE DES GRANGES BLANCHES;Saint-Just-la-Pendue;45.893264;4.23973;1.735;;;Gazole,SP95;E85,GPLc,E10,SP98;;E85;;;;
60000010;60000;40 avenue du 8 Mai 1945;Beauvais;49.44266;2.09261;1.682;;;Gazole,SP95,E85,SP98;GPLc,E10;GPLc;E10;Oise;60;Hauts-de-France;32
1500006;1500;550, RUE JEAN MERMOZ;Château-Gaillard;45.97592;5.30925;1.849;;;Gazole,SP95;E85,GPLc,E10,SP98;;E85;;;;
38360001;38360;Rue du 19 mars 1962;Sassenage;45.218;5.663;1.715;;;Gazole,SP95,E85,E10,SP98;GPLc;;GPLc;Isère;38;Auvergne-Rhône-Alpes;84
34800002;34800;9 RN 9;Clermont-l'Hérault;43.632;3.44;1.779;;;Gazole,SP95,E10;E85,GPLc,SP98;;E85;;;;
20167008;20167;Gare de Mezzana - Lieu-dit 'Saint Pierre, T20;Sarrola-Carcopino;41.979620445373996;8.83383448204;1.823;;;Gazole,SP95;E85,GPLc,E10,SP98;;;Corse-du-Sud;2A;Corse;94
85320002;85320;2, rue des Acacias;Mareuil-sur-Lay-Dissais;46.53821;-1.23044;1.66;;;Gazole,SP95,E10;E85,GPLc,SP98;;E85;;;;
89350001;89350;LOT ST MICHEL;Champignelles;47.779;3.077;1.749;;;Gazole,SP95,SP98;E85,GPLc,E10;;E85;;;;
44160006;44160;RELAIS DE BEAULIEU RN 165;Pontchâteau;47.449842495365004;-2.127482917;1.82;;;Gazole,SP95,SP98;E85,GPLc,E10;;E85;;;;
9350003;9350;ROUTE DE DAUMAZAN;Les Bordes-sur-Arize;43.108130777057994;1.37493244737;1.74;;;Gazole,SP95,SP98;E85,GPLc,E10;;E85;;;;
20240004;20240;1680 avenue du 9 Septembre - Lotissement Feminiccia - RN 198;Ghisonaccia;42.022;9.411;1.79;;;Gazole,SP95;E85,GPLc,E10,SP98;;E85;;;;
42160004;42160;ZAC de Migalon;Andrézieux-Bouthéon;45.536;4.287;1.683;;;Gazole,SP95,E85,GPLc,E10;SP98;;SP98;Loire;42;Auvergne-Rhône-Alpes;84
37600001;37600;ROUTE DE VAUZELLES;Loches;47.13;0.984;1.705;;;Gazole,SP95,E85,GPLc,E10,SP98;;;;Indre-et-Loire;37;Centre-Val de Loire;24
40260005;40260;RUE JEAN DE NASSE;Castets;43.877;-1.143;1.679;;;Gazole,SP95,E10;E85,GPLc,SP98;;E85;;;;
72130009;72130;CC - Rue des érables;Sougé-le-Ganelon;48.317274120676;-0.025157910999999998;1.699;;;Gazole,SP95,SP98;E85,GPLc,E10;;E85;;;;
20167005;20090;RD 31 lieu dit Manicola Vecchia;Ajaccio;41.951;8.78;1.793;;;Gazole,SP95;E85,GPLc,E10,SP98;;E85;;;;
20153003;20153;RD 87;Guitera-les-Bains;41.900404101832;9.0974515760268;1.8;;;Gazole,SP95;E85,GPLc,E10,SP98;;E85;;;;
80220003;80220;Avenue du Président Roosevelt;Bouttencourt;49.93908;1.62364;1.704;;;Gazole,SP95,SP98;E85,GPLc,E10;;E85;;;;
82160001;82160;RD 926;Parisot;44.2778249504;1.8577940301800002;1.818;;;Gazole,SP95;E85,GPLc,E10,SP98;;E85;;;;
74330002;74330;Route Nationale 508;Epagny Metz-Tessy;45.941;6.088;1.88;;;Gazole,SP95,SP98;E85,GPLc,E10;;E85;;;;
15500007;15500;63 AVENUE GENERAL DE GAULLE;Massiac;45.254;3.197;1.757;;;Gazole,SP95,SP98;E85,GPLc,E10;;E85;;;;
21240003;21240;8 Rue Charles Dullin;Talant;47.341;4.997;1.749;;;Gazole,SP95,E10,SP98;E85,GPLc;;GPLc;Côte-d'Or;21;Bourgogne-Franche-Comté;27
91620001;91620;5 RUE DE LA CROIX SAINT JACQUES;La Ville-du-Bois;48.67;2.277;1.747;;;Gazole,SP95,GPLc,E10;E85,SP98;;E85;;;;
8330002;8330;12 RUE PIERRE VIENOT;Vrigne aux Bois;49.735;4.85;1.779;;;Gazole,SP95,SP98;E85,GPLc,E10;;E85;;;;
69930001;69930;La Croix Blanche;Saint-Laurent-de-Chamousset;45.738;4.467;1.89;;;Gazole,SP95;E85,GPLc,E10,SP98;E10;;Rhône;69;Auvergne-Rhône-Alpes;84
47140002;47140;Avenue de la Myre Mory;Saint-Sylvestre-sur-Lot;44.39673;0.80632;1.679;;;Gazole,SP95,SP98;E85,GPLc,E10;;E85;;;;
88270001;88270;Rue des Grands Jardins;Dompaire;48.22;6.224;1.709;;;Gazole,SP95,SP98;E85,GPLc,E10;;E85;;;;
24450001;24450;Avenue de Périgueux;La Coquille;45.539;0.976;1.717;;;Gazole,SP95,SP98;E85,GPLc,E10;;E85;;;;
36100003;36100;RN 151;Saint-Aoustrille;46.938;1.947;1.82;;;Gazole,SP95,E85;GPLc,E10,SP98;;;Indre;36;Centre-Val de Loire;24
77515001;77515;PARC D'ACTIVITES PRES DES BOURDEAUX;Faremoutiers;48.8;2.986;1.769;;;Gazole,SP95,SP98;E85,GPLc,E10;;;Seine-et-Marne;77;Île-de-France;11
40006001;40000;1234 Avenue du Vignau;Mont-de-Marsan;43.87771;-0.46152;1.739;;;Gazole,SP95,E85,GPLc,E10;SP98;;SP98;Landes;40;Nouvelle-Aquitaine;75
74210002;74210;680 route d'Annecy;Doussard;45.776;6.222;1.816;;;Gazole,SP95;E85,GPLc,E10,SP98;;E85;;;;
69330002;69330;Boulevard Louis Pradel;Jonage;45.796;5.048;1.717;;;Gazole,SP95,SP98;E85,GPLc,E10;;E85;;;;
20219003;20219;RT 20;Vivario;42.172;9.17;1.829;;;Gazole,SP95;E85,GPLc,E10,SP98;;E85;;;;
34140006;34140;180 chemin des esparrieres;Bouzigues;43.448;3.643;1.899;;;Gazole,SP95,E85,GPLc;E10,SP98;;E10;;;;
42140003;42140;Rue Lamartine;Chazelles-sur-Lyon;45.63504628802799;4.3809360850305;1.719;;;Gazole,SP95,SP98;E85,GPLc,E10;;E85;;;;
31430002;31430;2 AVENUE DES PYRENEES;Le Fousseret;43.288;1.069;1.769;;;Gazole,SP95,SP98;E85,GPLc,E10;;;Haute-Garonne;31;Occitanie;76
51067001;51100;16 route de cernay;Reims;49.26;4.063;1.699;;;Gazole,SP95,E10,SP98;E85,GPLc;;E85;;;;
61110002;61110;ZA ST MARC;Rémalard en Perche;48.424;0.772;1.669;;;Gazole,SP95,SP98;E85,GPLc,E10;;E85;;;;
76850001;76850;RUE DES FORGES;Bosc-le-Hard;49.631;1.18;1.709;;;Gazole,SP95,SP98;E85,GPLc,E10;;E85;;;;
20250001;20250;RT 20;Corte;42.301790177065;9.1575178955876;1.88;;;Gazole,SP95,GPLc;E85,E10,SP98;;E85;;;;
94400004;94400;2 Rue Eugène Hénaff;Vitry-sur-Seine;48.794;2.416;1.739;;;Gazole,SP95,E10;E85,GPLc,SP98;GPLc;;;;;
47390001;47390;BOUHEBALLE;Layrac;44.1293782328;0.65982;1.829;;;Gazole,SP95;E85,GPLc,E10,SP98;;E85;;;;
73330002;73330;zi Baronnie;Le Pont-de-Beauvoisin;45.52956;5.68477;1.729;;;Gazole,SP95,E10;E85,GPLc,SP98;;E85;;;;
56460003;56460;2 RUE NATIONALE;Val d'Oust;47.869697300000006;-2.4634533;1.775;;;Gazole,SP95;E85,GPLc,E10,SP98;;E85;;;;
70180001;70180;Rue Pasteur;Autet;47.552;5.687;1.709;;;Gazole,SP95,E85;GPLc,E10,SP98;;GPLc;;;;
50510001;50510;Rue de la Gabelle;Cérences;48.91326;-1.4412119039100002;1.669;;;Gazole,SP95,E10,SP98;E85,GPLc;;E85;;;;
35510006;35510;50 rue de belle épine et boulevard des métairies;Cesson-Sévigné;48.122;-1.6;1.677;;;Gazole,SP95,SP98;E85,GPLc,E10;;E85;;;;
73460002;73460;217 rue du grand Arc Carrefour des vallées;Tournon;45.646;6.33;1.738;;;Gazole,SP95,E85,E10;GPLc,SP98;;GPLc;;;;
10210001;10210;34 Route de Troyes;Chaource;48.06585;4.14076;1.699;;;Gazole,SP95,SP98;E85,GPLc,E10;;;Aube;10;Grand Est;44
26160001;26160;160 ROUTE D ALEYRAC;La Bégude-de-Mazenc;44.541167130000005;4.93414812;1.769;;;Gazole,SP95,SP98;E85,GPLc,E10;;E85;;;;
74380001;74380;45 route de Ripaille - P.A. de la Menoge;Bonne;46.172;6.312;1.738;;;Gazole,SP95,E85,E10,SP98;GPLc;;GPLc;Haute-Savoie;74;Auvergne-Rhône-Alpes;84
22160001;22160;Rue Charles le Goffic;Callac;48.401;-3.43;1.729;;;Gazole,SP95,E10;E85,GPLc,SP98;;E85;;;;
67580001;67580;18 RUE DE LA BITCHE;Mertzwiller;48.8684;7.68771;1.859;;;Gazole,SP95,SP98;E85,GPLc,E10;;E85;;;;
50360003;50360;Rue de la Libération;Picauville;49.38107;-1.41538;1.765;;;Gazole,SP95;E85,GPLc,E10,SP98;;E85;;;;
38113001;38113;Route de Valence;Veurey-Voroize;45.26267;5.6243;1.989;;;Gazole,SP95,SP98;E85,GPLc,E10;;E85;;;;
49310001;49310;centre commercial les courtils;Lys-Haut-Layon;47.147;-0.522;1.689;;;Gazole,SP95,E85,E10,SP98;GPLc;;GPLc;Maine-et-Loire;49;Pays de la Loire;52
11150002;11150;ld croix de l'ourmet  RN 113;Villepinte;43.279337149999996;2.0937715565;1.739;;;Gazole,SP95,SP98;E85,GPLc,E10;;E85;;;;
64000001;64000;1 Avenue du Général Leclerc;Pau;43.304772276464;-0.32975314112009996;1.709;;;Gazole,SP95,GPLc,E10,SP98;E85;;E85;Pyrénées-Atlantiques;64;Nouvelle-Aquitaine;75
39200005;39200;38 Route de Lyon;Saint-Claude;46.38038;5.83492;1.725;;;Gazole,SP95,E10;E85,GPLc,SP98;;E85;;;;
6500004;6500;91, route Val des Castagnins;Menton;43.78;7.482;1.789;;;Gazole,SP95,E85,SP98;GPLc,E10;GPLc;E10;Alpes-Maritimes;6;Provence-Alpes-Côte d'Azur;93
21000017;21000;1 Avenue du Mont Blanc;Dijon;47.2985;5.07871;1.829;;;Gazole,SP95,E85;GPLc,E10,SP98;;GPLc;;;;
33500001;33500;ROUTE DE CASTILLON;Libourne;44.901;-0.218;1.711;;;Gazole,SP95,E85,E10,SP98;GPLc;;GPLc;Gironde;33;Nouvelle-Aquitaine;75
87000028;87000;26 RUE WAGNER;Limoges;45.818457256025;1.2492994846559;1.719;;;Gazole,SP95,E10;E85,GPLc,SP98;;E85;;;;
71110001;71110;ZONE ARTISANALE;Marcigny;46.278;4.031;1.739;;;Gazole,SP95,SP98;E85,GPLc,E10;;E85;;;;
20137009;20137;Les 4 Chemins BP115;Porto-Vecchio;41.598;9.276;1.87;;;Gazole,SP95,GPLc;E85,E10,SP98;;E85;;;;
49360003;49360;boulevard Edouard Colbert;Maulévrier;47.01;-0.756;1.699;;;Gazole,SP95,E10,SP98;E85,GPLc;;E85;;;;
41400001;41400;rue de Chenonceaux;Chissay-en-Touraine;47.342;1.163;1.699;;;Gazole,SP95,E10,SP98;E85,GPLc;E85;;;;;
44320002;44320;ZA LE BUTAI;Chaumes-en-Retz;47.114543249043;-1.9511237760851;1.669;;;Gazole,SP95,E10,SP98;E85,GPLc;;E85;;;;
30000016;30900;120 Chemin du Mas Fléchier;Nîmes;43.816;4.37;1.719;;;Gazole,SP95,E10;E85,GPLc,SP98;;E85;;;;
66005001;66000;Avenue Victor Dalbiez;Perpignan;42.686492490449;2.8827135110700004;1.719;;;Gazole,SP95,E85,SP98;GPLc,E10;;GPLc;;;;
50480002;50480;Les Crutelles;Sainte-Mère-Église;49.405;-1.322;1.69;;;Gazole,SP95,SP98;E85,GPLc,E10;;E85;;;;
57200004;57200;Route de Bitche;Sarreguemines;49.11719;7.10084;1.699;;;Gazole,SP95,E85,GPLc,E10,SP98;;;;Moselle;57;Grand Est;44
91410004;91420;69 Avenue Charles de Gaulle;Morangis;48.706;2.343;1.735;;;Gazole,SP95,E10,SP98;E85,GPLc;;E85;;;;
41200002;41200;4 Avenue de Villefranche;Romorantin-Lanthenay;47.353;1.744;1.8;;;Gazole,SP95;E85,GPLc,E10,SP98;;E85;;;;
76370002;76370;9 ROUTE DE DIEPPE;Petit-Caux;49.94;1.186;1.809;;;Gazole,SP95;E85,GPLc,E10,SP98;;GPLc;Seine-Maritime;76;Normandie;28
67380001;67380;Rue d'Eckbolsheim;Lingolsheim;48.56345;7.68977;1.693;;;Gazole,SP95,E10,SP98;E85,GPLc;;E85;;;;
4000004;4000;8 avenue du 8 Mai 1945;Digne-les-Bains;44.0896;6.23748;1.747;;;Gazole,SP95,GPLc,E10;E85,SP98;;;Alpes-de-Haute-Provence;4;Provence-Alpes-Côte d'Azur;93
33550002;33550;1 Route de Créon;Langoiran;44.71373;-0.39435;1.749;;;Gazole,SP95,E10,SP98;E85,GPLc;;E85;;;;
30700003;30700;10 CROIX PALMIER;Uzès;44.00805;4.41802;1.832;;;Gazole,SP95;E85,GPLc,E10,SP98;;E85;;;;
42660001;42660;28 RUE DU FOREZ;Saint-Genest-Malifaux;45.342869278199004;4.4207864105866;1.77;;;Gazole,SP95,SP98;E85,GPLc,E10;;E85;;;;
56500005;56500;Giratoire de Kérabuse;Moréac;47.90027;-2.83932;1.685;;;Gazole,SP95,E10;E85,GPLc,SP98;;E85;;;;
44450003;44450;Centre Commercial du Chêne - l'Aulnaie;Saint-Julien-de-Concelles;47.248;-1.371;1.669;;;Gazole,SP95,SP98;E85,GPLc,E10;;E85;;;;
15250004;15250;Avenue de la Plaine;Jussac;44.99661;2.42166;1.738;;;Gazole,SP95,E10;E85,GPLc,SP98;;;Cantal;15;Auvergne-Rhône-Alpes;84
20131001;20131;RTE N 196  LANCCIATO PADULELLI;Pianottoli-Caldarello;41.491825740818;9.055204657531599;1.92;;;Gazole,SP95;E85,GPLc,E10,SP98;;E85;;;;
42720001;42720;495 rue de la République;Pouilly-sous-Charlieu;46.139;4.108;1.779;;;Gazole,SP95,SP98;E85,GPLc,E10;;;Loire;42;Auvergne-Rhône-Alpes;84
40700001;40700;ROUTE DE ST SEVER;Hagetmau;43.6585388198;-0.59109674408;1.818;;;Gazole,SP95;E85,GPLc,E10,SP98;;E85;;;;
20220006;20220;RN 197;Aregno;42.609;8.875;1.853;;;Gazole,SP95;E85,GPLc,E10,SP98;;;Haute-Corse;2B;Corse;94
84360003;84360;Avenue Philippe de Girard;Lauris;43.747;5.312;1.779;;;Gazole,SP95,E85,SP98;GPLc,E10;;GPLc;;;;
69800010;69800;13 Bd Edouard HERRIOT;Saint-Priest;45.693695659999996;4.94000494;1.729;;;Gazole,SP95,SP98;E85,GPLc,E10;;E85;;;;
40280006;40280;200 boulevard oscar niemeyer;Saint-Pierre-du-Mont;43.867100493738995;-0.48495981894865;1.739;;;Gazole,SP95,E85,E10;GPLc,SP98;;;Landes;40;Nouvelle-Aquitaine;75
6650002;6650;20 Route de Cannes;Opio;43.65814;6.99578;1.91;;;Gazole,SP95,E85,SP98;GPLc,E10;;;Alpes-Maritimes;6;Provence-Alpes-Côte d'Azur;93
32810003;32810;"""Las Arribères"" RN21";Preignan;43.712;0.622;1.91;;;Gazole,SP95;E85,GPLc,E10,SP98;;E85;;;;
19100011;19100;86 Avenue Président John Kennedy;Brive-la-Gaillarde;45.16671;1.5459;1.679;;;Gazole,SP95,SP98;E85,GPLc,E10;;;Corrèze;19;Nouvelle-Aquitaine;75
3400003;3400;28 Rue Bergeron-Vebret;Yzeure;46.563;3.355;1.849;;;Gazole,SP95,SP98;E85,GPLc,E10;;E85;;;;
12170001;12170;28 Avenue de la Vallée du Tarn;Réquista;44.029;2.534;1.755;;;Gazole,SP95,E10;E85,GPLc,SP98;;E85;;;;
59123001;59123;49 RUE PIERRE DECOCK;Bray-Dunes;51.065;2.52;1.689;;;Gazole,SP95,SP98;E85,GPLc,E10;;E85;;;;
63490002;63490;2 route d'Issoire;Sauxillanges;45.550330010776;3.3669437459243;1.762;;;Gazole,SP95,SP98;E85,GPLc,E10;;E85;;;;
88800002;88800;rue du lieutenant gauffre;Vittel;48.198083614299996;5.9403257296000005;1.709;;;Gazole,SP95,SP98;E85,GPLc,E10;E85;;;;;
71350001;71350;AVENUE GISCARD D ESTAING;Verdun-sur-le-Doubs;46.892;5.024;1.799;;;Gazole,SP95,SP98;E85,GPLc,E10;;E85;;;;
44370003;44370;306, Rue du Maréchal Foch;Loireauxence;47.3863;-1.03342;1.79;;;SP95,SP98;Gazole,E85,GPLc,E10;Gazole;;;;;
14053001;14000;1 Boulevard Maréchal Juin;Caen;49.21;-0.366;1.711;;;Gazole,SP95,E10,SP98;E85,GPLc;;E85;;;;
68040002;68040;1 Route de Colmar;Ingersheim;48.095;7.306;1.81;;;Gazole,SP95,SP98;E85,GPLc,E10;;E85;;;;
73130002;73130;LES GRANDS PRES;Saint-Étienne-de-Cuines;45.349;6.302;1.699;;;Gazole,SP95,E85,E10;GPLc,SP98;;GPLc;;;;
56260001;56260;C. Commercial de Quelisoy;Larmor-Plage;47.728;-3.382;1.659;;;Gazole,SP95,SP98;E85,GPLc,E10;;E85;;;;
27540001;27540;17 Rue d'Ézy;Ivry-la-Bataille;48.88013;1.45854;1.761;;;Gazole,SP95,SP98;E85,GPLc,E10;E85;;;;;
19210001;19210;Avenue du 8 Mai 1945;Lubersac;45.438;1.397;1.695;;;Gazole,SP95,E10,SP98;E85,GPLc;;GPLc;Corrèze;19;Nouvelle-Aquitaine;75
36200001;36200;Route de Gargilesse PAUMULE;Le Pêchereau;46.575;1.535;1.718;;;Gazole,SP95,SP98;E85,GPLc,E10;;E85;;;;
11300001;11300;16, avenue Camille Bouché;Limoux;43.06103;2.21442;1.999;;;Gazole,SP95,E85;GPLc,E10,SP98;;;Aude;11;Occitanie;76
63370001;63370;26 Avenue de l Europe;Lempdes;45.777;3.197;1.729;;;Gazole,SP95,E85,GPLc,E10;SP98;;SP98;Puy-de-Dôme;63;Auvergne-Rhône-Alpes;84
52500002;52500;Route de Vesoul;Fayl-Billot;47.784;5.611;1.759;;;Gazole,SP95,E10;E85,GPLc,SP98;;E85;;;;
60690001;60690;145 DU GENERAL LECLERC;Marseille-en-Beauvaisis;49.582;1.954;1.684;;;Gazole,SP95,E85,E10,SP98;GPLc;;GPLc;Oise;60;Hauts-de-France;32
63790001;63790;Route du chambon;Murol;45.576;2.932;1.82;;;Gazole,SP95,SP98;E85,GPLc,E10;;E85;;;;
22480001;22480;CROAS DOM HERRY;Saint-Nicolas-du-Pélem;48.3066976252;-3.16397737542;1.675;;;Gazole,SP95,SP98;E85,GPLc,E10;;E85;;;;
40100004;40100;Avenue Georges Clémenceau;Dax;43.708;-1.044;1.698;;;Gazole,SP95,E10,SP98;E85,GPLc;;E85;;;;
12560001;12560;LE BOURG;Saint-Laurent-d'Olt;44.445;3.109;1.699;;;Gazole,SP95;E85,GPLc,E10,SP98;;E85;;;;
63210002;63210;RTE N 89;Rochefort-Montagne;45.687;2.805;1.815;;;Gazole,SP95,SP98;E85,GPLc,E10;;GPLc;;;;
29160003;29160;Penandreff;Crozon;48.2506817631;-4.47202790147;1.678;;;Gazole,SP95,E85,E10;GPLc,SP98;;GPLc;;;;
30490002;30490;13 Avenue du Général de Gaulle;Montfrin;43.873;4.596;1.699;;;Gazole,SP95,E85,SP98;GPLc,E10;;GPLc;;;;
50500004;50500;Chemin de Pommenauque;Carentan-les-Marais;49.307;-1.253;1.699;;;Gazole,SP95,SP98;E85,GPLc,E10;;E85;;;;
89630001;89630;RUE DE L'ETANG;Quarré-les-Tombes;47.371;3.998;1.825;;;Gazole,SP95;E85,GPLc,E10,SP98;;E85;;;;
47120001;47120;ROUTE DE SAINTE FOY LA GRANDE;Duras;44.68;0.192;1.719;;;Gazole,SP95,SP98;E85,GPLc,E10;;E85;;;;
7160001;7160;chem Pra;Le Cheylard;44.912;4.441;1.799;;;Gazole,SP95,E85,E10,SP98;GPLc;;;Ardèche;7;Auvergne-Rhône-Alpes;84
56300004;56300;22 rue Albert de Mun;Pontivy;48.057;-2.963;1.771;;;Gazole,SP95,GPLc;E85,E10,SP98;;E85;;;;
62690001;62690;50 rue GEORGES LAMIOT;Aubigny-en-Artois;50.35;2.582;1.706;;;Gazole,SP95,E85,SP98;GPLc,E10;GPLc;;;;;
42500013;42500;Terre Ronde;Le Chambon-Feugerolles;45.390274844305004;4.3153039430976;1.749;;;Gazole,SP95,E10;E85,GPLc,SP98;E85;GPLc;;;;
53950002;53950;9 rue du lavoir ROUTE DE ST jEAN;Louverné;48.122;-0.724;1.719;;;Gazole,SP95,SP98;E85,GPLc,E10;;E85;;;;
22150004;22150;Rue du Trébuchon;Plouguenast-Langast;48.281;-2.702;1.669;;;Gazole,SP95,SP98;E85,GPLc,E10;;;Côtes-d'Armor;22;Bretagne;53
33350003;33350;RUE JULES FERRY;Castillon-la-Bataille;44.85378;-0.04451;1.665;;;Gazole,SP95,E10;E85,GPLc,SP98;;E85;;;;
81320001;81320;AVENUE DU LANGUEDOC;Murat-sur-Vèbre;43.68311647;2.85989826;1.749;;;Gazole,SP95,SP98;E85,GPLc,E10;;E85;;;;
59166001;59166;27 rue Auger;Bousbecque;50.767;3.087;1.709;;;Gazole,SP95,E10,SP98;E85,GPLc;;;Nord;59;Hauts-de-France;32
77760001;77760;Rue de l'Avenir;La Chapelle-la-Reine;48.324;2.577;1.749;;;Gazole,SP95,SP98;E85,GPLc,E10;;E85;;;;
58470003;58470;Rue de Paris;Magny-Cours;46.88553;3.15151;1.805;;;Gazole,SP95,SP98;E85,GPLc,E10;;E85;;;;
38200017;38200;19 avenue Berthelot;Vienne;45.538;4.874;1.73;;;Gazole,SP95,SP98;E85,GPLc,E10;;E85;;;;
53200005;53203;AVENUE GEORGES POMPIDOU;Château-Gontier-sur-Mayenne;47.83;-0.686;1.699;;;Gazole,SP95,E85,GPLc,SP98;E10;;E10;Mayenne;53;Pays de la Loire;52
62164001;62164;38 route nationale;Ambleteuse;50.809;1.612;1.749;;;Gazole,SP95,SP98;E85,GPLc,E10;;E85;;;;
38710003;38710;218 RUE DOCTEUR SENEBIER;Mens;44.815;5.751;1.879;;;Gazole,SP95;E85,GPLc,E10,SP98;;E85;;;;
36000003;36000;40 Avenue d'Argenton;Châteauroux;46.805;1.674;1.77;;;Gazole,SP95,SP98;E85,GPLc,E10;;E85;;;;
63300001;63300;rue François Truffaut;Thiers;45.839;3.51;1.773;;;Gazole,SP95,E10,SP98;E85,GPLc;;E85;;;;
78500001;78500;AVENUE ROBERT SHUMANN;Sartrouville;48.948;2.198;1.758;;;Gazole,SP95,E85,E10,SP98;GPLc;;GPLc;Yvelines;78;Île-de-France;11
29740001;29740;Rue de Lesconil;Plobannalec-Lesconil;47.824659584100004;-4.24275383367;1.699;;;Gazole,SP95,SP98;E85,GPLc,E10;;E85;;;;
76560001;76560;6 rue Jean Varin;Doudeville;49.721;0.782;1.685;;;Gazole,SP95,SP98;E85,GPLc,E10;;E85;;;;
72310001;72310;LES SABLONNIERES;Bessé-sur-Braye;47.842;0.756;1.729;;;Gazole,SP95,SP98;E85,GPLc,E10;;E85;;;;
91814001;91100;ROUTE DE VILLOISON;Villabé;48.584;2.444;1.75;;;Gazole,SP95,E85,GPLc,E10,SP98;;;;Essonne;91;Île-de-France;11
52150001;52150;Rue Carnot;Saint-Thiébault;48.202;5.581;1.879;;;Gazole,SP95;E85,GPLc,E10,SP98;;E85;;;;
41160001;41160;za la varenne;Morée;47.91;1.232;1.749;;;Gazole,SP95,E85;GPLc,E10,SP98;;GPLc;;;;
68740001;68740;RUE DE LA 1ERE ARMEE;Fessenheim;47.918;7.528;1.719;;;Gazole,SP95,SP98;E85,GPLc,E10;;E85;;;;
20260001;20260;RN 197 LIEU-DIT LES PADULES;Calvi;42.55461139775301;8.7615155767799;1.983;;;Gazole,SP95,GPLc;E85,E10,SP98;;E85;;;;
88410001;88410;rue de La Croix de mission;Monthureux-sur-Saône;48.032;5.978;1.839;;;Gazole,SP95,SP98;E85,GPLc,E10;;E85;;;;
30129002;30129;DE LA REPUBLIQUE;Manduel;43.821;4.469;1.709;;;Gazole,SP95,SP98;E85,GPLc,E10;;E85;;;;
15800004;15800;15 Grand'Rue;Thiézac;45.016;2.664;1.79;;;Gazole,SP95;E85,GPLc,E10,SP98;;E85;;;;
88400006;88400;60 Boulevard Kelsch;Gérardmer;48.0749562;6.883139;1.74;;;Gazole,SP95,SP98;E85,GPLc,E10;;E85;;;;
69230001;69230;Les basses barolles;Saint-Genis-Laval;45.679;4.792;1.739;;;Gazole,SP95,GPLc,E10,SP98;E85;;E85;Rhône;69;Auvergne-Rhône-Alpes;84
44110005;44110;Rue des 27 Otages;Châteaubriant;47.719;-1.364;1.909;;;Gazole,SP95,SP98;E85,GPLc,E10;;;Loire-Atlantique;44;Pays de la Loire;52
68150003;68150;12 Rue de l'Industrie;Ribeauvillé;48.192;7.338;1.678;;;Gazole,SP95,E85,E10;GPLc,SP98;;GPLc;;;;
37140001;37140;27 avenue du general de gaulle;Bourgueil;47.274;0.167;1.673;;;Gazole,SP95,E85,GPLc,E10,SP98;;;;Indre-et-Loire;37;Centre-Val de Loire;24
74330004;74330;ROUTE DES VIGNES;La Balme-de-Sillingy;45.974;6.033;1.745;;;Gazole,SP95,E85,E10;GPLc,SP98;;GPLc;;;;
62901001;62231;1001 BOULEVARD DU KENT;Coquelles;50.937;1.809;1.679;;;Gazole,SP95,E85,GPLc,E10,SP98;;;;Pas-de-Calais;62;Hauts-de-France;32
2100019;2100;153 Rue de Mulhouse;Saint-Quentin;49.84785;3.30117;1.708;;;Gazole,SP95,E85,SP98;GPLc,E10;;GPLc;;;;
54000013;54000;6 Avenue de Boufflers;Nancy;48.689392259323;6.1617566153138;1.719;;;Gazole,SP95,SP98;E85,GPLc,E10;;E85;;;;
62330001;62330;Rue de l'Eglise Berguette;Isbergues;50.609;2.472;1.677;;;Gazole,SP95,SP98;E85,GPLc,E10;E85;;;;;
76270001;76270;Rue de la Grande Flandre;Neufchâtel-en-Bray;49.732;1.434;1.725;;;Gazole,SP95,E85,E10;GPLc,SP98;;GPLc;;;;
78470001;78470;PLACE DE BEAUPLAN;Saint-Rémy-lès-Chevreuse;48.716;2.085;1.687;;;Gazole,SP95,E85,E10,SP98;GPLc;;GPLc;Yvelines;78;Île-de-France;11
29150005;29150;18 RUE D'YS;Cast;48.155;-4.141;1.759;;;Gazole,SP95;E85,GPLc,E10,SP98;;E85;;;;
57280003;57280;A 31 Sortie Maizières les Metz;Hauconcourt;49.214;6.17;1.729;;;Gazole,SP95,GPLc,E10;E85,SP98;;E85;;;;
35740001;35740;34 Bd Dumaine de la Josserie;Pacé;48.148;-1.767;1.87;;;Gazole,SP95;E85,GPLc,E10,SP98;;E85;;;;
62610001;62610;ZAC DU PONT SANS PAREIL;Ardres;50.891181979571;1.9710108987238;1.699;;;Gazole,SP95,SP98;E85,GPLc,E10;;E85;Pas-de-Calais;62;Hauts-de-France;32
47200013;47200;6-8 RUE FRANCOIS MAURIAC;Marmande;44.500894450000004;0.16388361823669;1.699;;;Gazole,SP95,E10;E85,GPLc,SP98;;SP98;Lot-et-Garonne;47;Nouvelle-Aquitaine;75
50190001;50190;Rue de Carentan;Périers;49.189;-1.404;1.669;;;Gazole,SP95,SP98;E85,GPLc,E10;;E85;;;;
49270001;49270;18 Rue de Vendée;Orée d'Anjou;47.333;-1.261;1.784;;;Gazole,SP95,SP98;E85,GPLc,E10;;E85;;;;
59286002;59286;140 rue jean jaures;Roost-Warendin;50.419778;3.107046;1.689;;;Gazole,SP95,SP98;E85,GPLc,E10;;;Nord;59;Hauts-de-France;32
1430004;1430;2 Rue de l'Égalité;Maillat;46.128;5.54;1.851;;;Gazole,SP95,E10;E85,GPLc,SP98;;E85;;;;
23000001;23000;46 Avenue d'Auvergne;Guéret;46.168;1.888;1.725;;;Gazole,SP95,E10,SP98;E85,GPLc;;E85;;;;
26400005;26400;Lieu-dit La Plaine;Crest;44.738;4.99;1.784;;;Gazole,SP95;E85,GPLc,E10,SP98;;E85;;;;
69290002;69290;Avenue Benoît Launay;Grézieu-la-Varenne;45.741;4.692;1.718;;;Gazole,SP95,E10,SP98;E85,GPLc;;E85;;;;
42610001;42610;2A RUE DU 8 MAI 1945;Saint-Romain-le-Puy;45.553883973637;4.1205472294829;1.769;;;Gazole,SP95,E85,E10,SP98;GPLc;;GPLc;Loire;42;Auvergne-Rhône-Alpes;84
21110002;21110;route departementale 905;Genlis;47.245;5.204;1.835;;;Gazole,SP95,SP98;E85,GPLc,E10;;E85;;;;
88420002;88420;Quai du Rabodeau;Saint-Michel-sur-Meurthe;48.32778276;6.894765130000001;1.639;;;Gazole,SP95,E10,SP98;E85,GPLc;;E85;;;;
38500008;38500;38 RUE GENERAL RAMBEAUD;Voiron;45.363782;5.5911230000000005;1.776;;;Gazole,SP95,SP98;E85,GPLc,E10;;E85;;;;
51420001;51420;Boulevard Charles de Gaulle;Witry-lès-Reims;49.285;4.109;1.699;;;Gazole,SP95,E10,SP98;E85,GPLc;;E85;;;;
88320001;88320;ZA du CHERI BUISSON;Lamarche;48.074490839999996;5.78766316;1.715;;;Gazole,SP95,SP98;E85,GPLc,E10;;;Vosges;88;Grand Est;44
64150004;64150;Avenue Charles Moureu;Mourenx;43.374;-0.623;1.698;;;Gazole,SP95,E10;E85,GPLc,SP98;;E85;;;;
14310003;14310;RUE GEORGES CLEMENCEAU;Villers-Bocage;49.08;-0.648;1.739;;;Gazole,SP95,E10;E85,GPLc,SP98;SP98;E85;;;;
41500001;41500;RTE DE BLOIS;Mer;47.697;1.501;1.729;;;Gazole,SP95,E85,GPLc,SP98;E10;;E10;Loir-et-Cher;41;Centre-Val de Loire;24
7250004;7250;route de loriol;Le Pouzin;44.75628;4.75673;1.76;;;Gazole,SP95,GPLc,SP98;E85,E10;;E85;;;;
85300001;85300;3 Boulevard des F.f.i.;Challans;46.846;-1.882;1.839;;;Gazole,SP95;E85,GPLc,E10,SP98;;E85;;;;
11400008;11400;129 AVENUE MONSEIGNEUR DELANGLE;Castelnaudary;43.315;1.96;1.739;;;Gazole,SP95,GPLc,E10;E85,SP98;;E85;;;;
77700004;77700;17 Place de l'Europe;Bailly-Romainvilliers;48.85;2.819;1.729;;;Gazole,SP95,SP98;E85,GPLc,E10;;E85;;;;
3270001;3270;3 RUE DU BOIS DES JARRAUX;Saint-Yorre;46.0545608;3.4701495400000004;1.743;;;Gazole,SP95,SP98;E85,GPLc,E10;;E85;;;;
25390001;25390;RUE DE LA VERDOLLE;Orchamps-Vennes;47.129;6.522;1.699;;;Gazole,SP95,SP98;E85,GPLc,E10;;E85;;;;
42290001;42290;2 RUE DU MOULIN GILLIER;Sorbiers;45.481;4.444;1.721;;;Gazole,SP95,E85,E10,SP98;GPLc;;GPLc;Loire;42;Auvergne-Rhône-Alpes;84
60300008;60300;510 AVENUE MARECHAL FOCH;Senlis;49.208;2.59;1.879;;;Gazole,SP95,E85,E10,SP98;GPLc;;GPLc;Oise;60;Hauts-de-France;32
18103001;18100;1 Rue du Mouton;Vierzon;47.231;2.088;1.735;;;Gazole,SP95,E10,SP98;E85,GPLc;;E85;;;;
76370006;76370;Avenue de Breauté;Rouxmesnil-Bouteilles;49.914;1.094;1.699;;;Gazole,SP95,E85,E10,SP98;GPLc;GPLc;;Seine-Maritime;76;Normandie;28
35610001;35610;VILLE CHEREL;Pleine-Fougères;48.552;-1.534;1.727;;;Gazole,SP95,E10;E85,GPLc,SP98;;E85;;;;
91220001;91220;CCIAL MAISON NEUVE;Brétigny-sur-Orge;48.587;2.304;1.72;;;Gazole,SP95,E85,GPLc,E10,SP98;;;;Essonne;91;Île-de-France;11
68000010;68000;111 Route de Rouffach;Colmar;48.064;7.34;1.709;;;Gazole,SP95,E10;E85,GPLc,SP98;;E85;;;;
13000003;13000;60 bd Roland Dorgelès;Marseille;43.348451033044995;5.3770151681026;1.81;;;Gazole,SP95,SP98;E85,GPLc,E10;;E85;;;;
48230001;48230;AV DE LA GARE;Chanac;44.47003;3.3461;1.78;;;Gazole,SP95,E85;GPLc,E10,SP98;;GPLc;;;;
25340001;25340;3 Rue de la Porte des Noyes-CLERVAL;Pays-de-Clerval;47.394;6.498;1.799;;;Gazole,SP95,SP98;E85,GPLc,E10;;E85;;;;
24250004;24250;le bourg;Groléjac;44.821;1.291;1.846;;;Gazole,SP95,E85,SP98;GPLc,E10;;GPLc;;;;
73630004;73630;85 RUE DES ECURIES;Le Châtelard;45.688834217287;6.1345421845170005;1.729;;;Gazole,SP95;E85,GPLc,E10,SP98;;;Savoie;73;Auvergne-Rhône-Alpes;84
69400008;69400;1139 RUE DE TARARE;Gleizé;45.979;4.69;1.729;;;Gazole,SP95,E85,SP98;GPLc,E10;;GPLc;;;;
84200012;84200;417 bis avenue du Mont Ventoux;Carpentras;44.057;5.058;1.899;;;Gazole,SP95,E85;GPLc,E10,SP98;;GPLc;;;;
20290009;20290;RN:193/T10 Crucetta;Lucciana;42.55;9.442;1.86;;;Gazole,SP95;E85,GPLc,E10,SP98;;E85;;;;
26340000;26340;Lieu-dit La Tuilière;Saillans;44.692;5.19;1.784;;;Gazole,SP95;E85,GPLc,E10,SP98;;E85;;;;
95550002;95550;ZAC DES MEUNIERS - 7 RUE STEPHANE HESSEL;Bessancourt;49.033;2.205;1.746;;;Gazole,SP95,E85,E10,SP98;GPLc;;GPLc;Val-d'Oise;95;Île-de-France;11
50590003;50590;3 rue du clos;Montmartin-sur-Mer;48.988;-1.519;1.69;;;Gazole,SP95,SP98;E85,GPLc,E10;;E85;;;;
71420002;71420;Route de Martigny;Génelard;46.579;4.241;1.739;;;Gazole,SP95,SP98;E85,GPLc,E10;;E85;;;;
56000003;56000;rue Jean Perrin;Vannes;47.644;-2.743;1.709;;;Gazole,SP95,SP98;E85,GPLc,E10;E85;;;;;
35350003;35350;LE PORTAIL;Saint-Méloir-des-Ondes;48.635;-1.899;1.669;;;Gazole,SP95,E10;E85,GPLc,SP98;;E85;;;;
12330002;12330;D840;Valady;44.441;2.441;1.829;;;Gazole,SP95;E85,GPLc,E10,SP98;;E85;;;;
56370005;56370;8 rue de la Mairie - le Bourg;Le Tour-du-Parc;47.526;-2.646;1.679;;;Gazole,SP95,SP98;E85,GPLc,E10;;E85;;;;
8150001;8150;RUE PASTEUR;Rimogne;49.84;4.545;1.716;;;Gazole,SP95,E85,SP98;GPLc,E10;;GPLc;;;;
72000012;72100;309 Avenue Georges Durand;Le Mans;47.972;0.217;1.759;;;Gazole,SP95,E10,SP98;E85,GPLc;;E85;;;;
31200019;31200;341 Avenue des États-Unis;Toulouse;43.656;1.422;1.94;;;Gazole,SP95,E85;GPLc,E10,SP98;;GPLc;;;;
72600002;72600;Route de la Ferté Bernard;Saint-Rémy-des-Monts;48.3429714881;0.37026499106800004;1.677;;;Gazole,SP95,E85,GPLc,E10;SP98;;SP98;Sarthe;72;Pays de la Loire;52
13200006;13200;Avenue de la libération;Arles;43.706;4.641;1.696;;;Gazole,SP95,GPLc,E10;E85,SP98;;E85;;;;
38300024;38300;155 rue de la bascule;Saint-Savin;45.627446928568;5.3053724861477;1.879;;;Gazole,SP95;E85,GPLc,E10,SP98;;E85;;;;
57530001;57530;RN3 ZAC SAINT JEAN;Courcelles-Chaussy;49.11;6.392;1.696;;;Gazole,SP95,E10;E85,GPLc,SP98;;E85;;;;
76330002;76330;Rue Jérôme Cardan;Port-Jérôme-sur-Seine;49.48189;0.58305;1.674;;;Gazole,SP95,SP98;E85,GPLc,E10;;E85;;;;
73300005;73300;Station Le Corbier - Le planet;Villarembert;45.24;6.27;1.97;;;Gazole,SP95,SP98;E85,GPLc,E10;;E85;;;;
91280001;91280;rue Marguerite Yourcenar;Saint-Pierre-du-Perray;48.614;2.506;1.715;;;Gazole,SP95,E10,SP98;E85,GPLc;;E85;;;;
32000004;32000;A CLARAC;Auch;43.664182784599994;0.591275479495;1.719;;;Gazole,SP95,E85,GPLc,E10,SP98;;;;Gers;32;Occitanie;76
72700002;72700;Route de la Suze;Allonnes;47.976245864270005;0.15674966213108;1.719;;;Gazole,SP95,E85,GPLc,E10;SP98;;SP98;Sarthe;72;Pays de la Loire;52
35520003;35520;Lieu-dit Beauséjour;La Mézière;48.21824;-1.74787;1.646;;;Gazole,SP95,E10;E85,GPLc,SP98;;E85;;;;
78580001;78580;67 Boulevard Paul Barre;Maule;48.912;1.852;1.939;;;Gazole,SP95,SP98;E85,GPLc,E10;;E85;;;;
71190003;71190;47 rue Gabriel Bouthiere;Étang-sur-Arroux;46.866;4.19;1.719;;;Gazole,SP95,SP98;E85,GPLc,E10;;E85;;;;
14390001;14390;RD 400;Cabourg;49.28814;-0.12678;1.699;;;Gazole,SP95,SP98;E85,GPLc,E10;;E85;;;;
20189001;20000;La Rocade Finosello;Ajaccio;41.9427905963;8.752502765600001;1.836;;;Gazole,SP95;E85,GPLc,E10,SP98;;E85;;;;
21000006;21000;8 Place du 30 Octobre et Légion d'Honneur;Dijon;47.322;5.053;1.829;;;Gazole,SP95,SP98;E85,GPLc,E10;;E85;;;;
77810001;77810;Chemin des Prés;Thomery;48.408376125446;2.7912725143;1.719;;;Gazole,SP95,E10,SP98;E85,GPLc;;E85;;;;
56890001;56890;6 RUE DU VERGER;Plescop;47.698;-2.804;1.699;;;Gazole,SP95,SP98;E85,GPLc,E10;;E85;;;;
88300004;88300;401 QUAI JEAN MOULIN;Neufchâteau;48.354;5.688;1.879;;;Gazole,SP95;E85,GPLc,E10,SP98;;;Vosges;88;Grand Est;44
30510002;30510;KM2 ROUTE DE NIMES;Générac;43.734412460033994;4.3475591304305;1.739;;;Gazole,SP95,SP98;E85,GPLc,E10;;E85;;;;
26750001;26750;95 RUE CLAIR;Saint-Paul-lès-Romans;45.057;5.099;1.717;;;Gazole,SP95,E85,GPLc,E10,SP98;;;;Drôme;26;Auvergne-Rhône-Alpes;84
37306001;37300;Rue de la Bondonnière;Joué-lès-Tours;47.356571449226;0.69812877979161;1.689;;;Gazole,SP95,SP98;E85,GPLc,E10;;E85;;;;
77140003;77140;Route de Larchant;Saint-Pierre-lès-Nemours;48.268;2.676;1.723;;;Gazole,SP95,SP98;E85,GPLc,E10;;E85;;;;
3160001;3160;Avenue Emile Guillaumin;Bourbon-l'Archambault;46.58333;3.06336;1.76;;;Gazole,SP95,SP98;E85,GPLc,E10;;E85;;;;
15250001;15250;AV.DE LA PRADE;Jussac;44.98584;2.41672;1.99;;;Gazole,SP95;E85,GPLc,E10,SP98;;E85;;;;
56390001;56390;ROUTE DE VANNES;Grand-Champ;47.755;-2.843;1.741;;;Gazole,SP95,E85,E10;GPLc,SP98;GPLc;SP98;Morbihan;56;Bretagne;53
20147001;20147;Trajinu;Serriera;42.289;8.7;1.879;;;Gazole,SP95;E85,GPLc,E10,SP98;;;Corse-du-Sud;2A;Corse;94
3000001;3000;169 ROUTE DE LYON;Moulins;46.541;3.344;1.749;;;Gazole,SP95,E10;E85,GPLc,SP98;;E85;;;;
6340001;6340;19 Avenue du Général de Gaulle;Drap;43.757;7.32;1.79;;;Gazole,SP95,SP98;E85,GPLc,E10;;E85;;;;
43240001;43240;D 500;Saint-Just-Malmont;45.330450820699994;4.31906795317;1.749;;;Gazole,SP95,E10,SP98;E85,GPLc;;E85;;;;
86180001;86180;Rue des Ecoles;Buxerolles;46.597390880917004;0.35110607183029;1.719;;;Gazole,SP95,E10;E85,GPLc,SP98;;E85;;;;
78114001;78114;rue vincent van gogh;Magny-les-Hameaux;48.725;2.083;1.711;;;Gazole,SP95,E85,E10,SP98;GPLc;;GPLc;Yvelines;78;Île-de-France;11
62223001;62223;Route de Lille;Saint-Nicolas;50.304;2.789;1.709;;;Gazole,SP95,E85,E10,SP98;GPLc;;;Pas-de-Calais;62;Hauts-de-France;32
90200002;90200;ZAC du Mont Jean, faubourg d' alsace;Giromagny;47.7374160601;6.8362603018;1.679;;;Gazole,SP95,SP98;E85,GPLc,E10;;E85;;;;
73100008;73500;ZONE DES FAVIERES-SOLLIERES;Val-Cenis;45.26570742;6.812138149999999;1.729;;;Gazole,SP95,E10;E85,GPLc,SP98;;E85;;;;
53410001;53410;Route de Laval;Le Bourgneuf-la-Forêt;48.161;-0.968;1.708;;;Gazole,SP95,SP98;E85,GPLc,E10;;E85;;;;
93240001;93240;80 BOULEVARD MAXIME GORKI;Stains;48.949;2.385;1.767;;;Gazole,SP95,E85,E10,SP98;GPLc;;GPLc;Seine-Saint-Denis;93;Île-de-France;11
20218004;20218;R.T 30;Morosaglia;42.463;9.205;1.839;;;Gazole,SP95;E85,GPLc,E10,SP98;;;Haute-Corse;2B;Corse;94
41170002;41170;Route de Cloyes;Mondoubleau;47.983;0.913;1.749;;;Gazole,SP95,E10,SP98;E85,GPLc;;E85;;;;
28190001;28190;Rue de Dolmont;Saint-Georges-sur-Eure;48.424;1.361;1.685;;;Gazole,SP95,E10,SP98;E85,GPLc;;E85;;;;
5600002;5600;Le Villard;Guillestre;44.661;6.618;1.769;;;Gazole,SP95,SP98;E85,GPLc,E10;;E85;;;;
13410004;13410;2 AVENUE LEO LAGRANGE;Lambesc;43.649;5.265;1.759;;;Gazole,SP95,E10;E85,GPLc,SP98;;E85;;;;
78610002;78610;57 Rue de Chartres;Le Perray-en-Yvelines;48.684;1.845;1.771;;;Gazole,SP95,E10,SP98;E85,GPLc;;E85;;;;
95570003;95570;Route Nationale 1;Moisselles;49.041177467467996;2.3422049553388;1.729;;;Gazole,SP95,E85,E10,SP98;GPLc;;;Val-d'Oise;95;Île-de-France;11
58300005;58300;107 Route de Moulins;Decize;46.821;3.452;1.719;;;Gazole,SP95,E10,SP98;E85,GPLc;;E85;;;;
38180001;38180;112 Rue de la Liberté;Seyssins;45.16;5.695;1.74;;;Gazole,SP95,E85,E10,SP98;GPLc;;GPLc;Isère;38;Auvergne-Rhône-Alpes;84
32200006;32200;Avenue de Cahuzac;Gimont;43.628;0.878;1.9;;;Gazole,SP95;E85,GPLc,E10,SP98;;E85;;;;
62350002;62350;Rue de Busnes;Saint-Venant;50.62;2.542;1.689;;;Gazole,SP95,SP98;E85,GPLc,E10;;E85;;;;
49440001;49440;PORTE DE NORMANDIE;Candé;47.568;-1.033;1.689;;;Gazole,SP95,SP98;E85,GPLc,E10;;E85;;;;
6240004;6240;96 avenue Prince Rainier III;Beausoleil;43.744768107496;7.4266167809815995;1.834;;;Gazole,SP95,SP98;E85,GPLc,E10;;E85;;;;
50450001;50450;25, rue de l'hotel saint denis;Gavray-sur-Sienne;48.91277;-1.35262;1.699;;;Gazole,SP95,SP98;E85,GPLc,E10;;E85;;;;
30430002;30430;Quartier Reboulasse;Barjac;44.305983685312;4.3426901021774;1.81;;;Gazole,SP95,E85;GPLc,E10,SP98;;;Gard;30;Occitanie;76
39700007;39700;Rue de la Gare;Fraisans;47.152;5.76;1.699;;;Gazole,SP95,E10;E85,GPLc,SP98;;E85;;;;
43170002;43170;ZI du Gray;Saugues;44.969;3.541;1.789;;;Gazole,SP95,SP98;E85,GPLc,E10;;;Haute-Loire;43;Auvergne-Rhône-Alpes;84
3410009;3410;Lieu-dit La Loue;Saint-Victor;46.378337771105;2.585400885507;1.755;;;Gazole,SP95,E85,E10;GPLc,SP98;;GPLc;;;;
70170002;70170;2 Avenue de Verdun;Port-sur-Saône;47.688;6.051;1.71;;;Gazole,SP95,E10;E85,GPLc,SP98;;E85;;;;
83690005;83690;Chemin de la Baume;Salernes;43.56;6.25;1.709;;;Gazole,SP95;E85,GPLc,E10,SP98;;E85;;;;
63220001;63220;route de beurriéres;Arlanc;45.414;3.725;1.769;;;Gazole,SP95,E85,SP98;GPLc,E10;;GPLc;;;;
76340003;76340;4 Rue Charles Desjonquières;Foucarmont;49.85;1.57;1.699;;;Gazole,SP95,SP98;E85,GPLc,E10;;E85;;;;
21270001;21270;RUE DE LA GARE;Pontailler-sur-Saône;47.311;5.41;1.799;;;Gazole,SP95,SP98;E85,GPLc,E10;;E85;;;;
89110001;89110;CHEMIN DE NEUILLY;Montholon;47.876;3.353;1.749;;;Gazole,SP95,SP98;E85,GPLc,E10;;E85;;;;
62270002;62270;5,RUE JULES FERRY;Frévent;50.27748;2.29229;1.699;;;Gazole,SP95,SP98;E85,GPLc,E10;;E85;;;;
25110004;25110;24 Rue Ernest Nicolas;Baume-les-Dames;47.3499088497;6.34694382569;1.689;;;Gazole,SP95,E85,E10;GPLc,SP98;;;Doubs;25;Bourgogne-Franche-Comté;27
22000002;22000;3 Rue Champlain;Saint-Brieuc;48.522;-2.732;1.68;;;Gazole,SP95,E10,SP98;E85,GPLc;;E85;;;;
76640004;76640;Place Gaston Sanson;Terres-de-Caux;49.651;0.591;1.719;;;Gazole,SP95,SP98;E85,GPLc,E10;;E85;;;;
76370004;76370;EtranMartin Eglise;Martin-Église;49.909;1.108;1.72;;;Gazole,SP95,E10,SP98;E85,GPLc;;E85;;;;
47340001;47340;1 rue BELJOUAN;Laroque-Timbaut;44.286;0.76;1.695;;;Gazole,SP95,SP98;E85,GPLc,E10;;E85;;;;
81000010;81000;3 rue des trois buissons;Albi;43.931;2.183;1.78;;;Gazole,SP95,SP98;E85,GPLc,E10;;E85;;;;
89000002;89000;RUE DE PREUILLY;Auxerre;47.792;3.58;1.749;;;Gazole,SP95,SP98;E85,GPLc,E10;;E85;;;;
44000001;44300;Route de PARIS;Nantes;47.257;-1.513;1.659;;;Gazole,SP95,GPLc,E10;E85,SP98;;E85;;;;
67130002;67130;Rue de la Creuse Fontaine;Russ;48.49433;7.25104;1.699;;;Gazole,SP95,E10,SP98;E85,GPLc;;E85;;;;
56500002;56500;ZA DE KERJEAN;Locminé;47.87553;-2.82825;1.679;;;Gazole,SP95,E85,E10;GPLc,SP98;;GPLc;;;;
28290001;28290;ROUTE DE BROU;Vald'Yerre;48.105;1.119;1.709;;;Gazole,SP95,SP98;E85,GPLc,E10;;E10;Eure-et-Loir;28;Centre-Val de Loire;24
47800003;47800;Avenue Alfred Court;Miramont-de-Guyenne;44.59548;0.35238;1.715;;;Gazole,SP95,SP98;E85,GPLc,E10;;E85;;;;
80550001;80550;rue du 8 mai;Le Crotoy;50.217;1.625;1.709;;;Gazole,SP95,SP98;E85,GPLc,E10;;;Somme;80;Hauts-de-France;32
34140001;34140;Avenue de Montpellier;Mèze;43.43;3.609;1.705;;;Gazole,SP95,E85,SP98;GPLc,E10;;GPLc;;;;
60390001;60390;450 Rue des Aulnes;Auneuil;49.368;1.987;1.719;;;Gazole,SP95,SP98;E85,GPLc,E10;;E85;;;;
43800001;43800;25 AVENUE PIERRE CHABANNES;Vorey;45.184;3.911;1.989;;;Gazole,SP95;E85,GPLc,E10,SP98;;E85;;;;
1200003;1200;Avenue Maréchal de Lattre de Tassigny;Valserhône;46.124;5.812;1.729;;;Gazole,SP95,E10;E85,GPLc,SP98;;E85;;;;
33350002;33350;Route de Libourne;Saint-Magne-de-Castillon;44.854;-0.061;1.664;;;Gazole,SP95,E85,E10,SP98;GPLc;;GPLc;Gironde;33;Nouvelle-Aquitaine;75
30380001;30380;Vieille Route d'Anduze;Saint-Christol-lez-Alès;44.097;4.068;1.715;;;Gazole,SP95,E10,SP98;E85,GPLc;;;Gard;30;Occitanie;76
12490002;12490;PARC ARTISANAL COMMUNAL ST FERREOL;Saint-Rome-de-Tarn;44.043;2.905;1.749;;;Gazole,SP95,SP98;E85,GPLc,E10;;E85;;;;
80210001;80210;43 RUE VICTOR HUGO;Feuquières-en-Vimeu;50.06153703;1.5945566500000001;1.685;;;Gazole,SP95,SP98;E85,GPLc,E10;E10;E85;;;;
76450001;76450;Avenue Maximiliansau;Cany-Barville;49.792;0.634;1.711;;;Gazole,SP95,SP98;E85,GPLc,E10;E85;;;;;
56420002;56420;21 Rue du Docteur Rème;Plumelec;47.839;-2.638;1.756;;;Gazole,SP95;E85,GPLc,E10,SP98;;E85;;;;
16100005;16100;220 Avenue Victor Hugo;Cognac;45.688;-0.313;1.7;;;Gazole,SP95,SP98;E85,GPLc,E10;;E85;;;;
85510001;85510;Rue Eugène Charrier;Le Boupère;46.79597;-0.9322000000000199;1.723;;;Gazole,SP95,SP98;E85,GPLc,E10;;E85;;;;
34980001;34980;ROUTE DE GANGES;Montpellier;43.6443;3.84361;1.698;;;Gazole,SP95,E85,E10,SP98;GPLc;;;Hérault;34;Occitanie;76
72250001;72250;LE RUISSEAU;Parigné-l'Évêque;47.9404382707;0.354735227494;1.719;;;Gazole,SP95,E85,E10,SP98;GPLc;;GPLc;Sarthe;72;Pays de la Loire;52
48100001;48100;38 AVENUE THEOPHILE ROUSSEL;Marvejols;44.562428946000004;3.29229521343;1.849;;;Gazole,SP95,GPLc;E85,E10,SP98;;E85;;;;
68000013;68000;57 Route de Rouffach;Colmar;48.068;7.344;1.79;;;Gazole,SP95,SP98;E85,GPLc,E10;;E85;;;;
3410004;3410;ROUTE DE PARIS;Saint-Victor;46.388;2.613;1.877;;;Gazole,SP95,SP98;E85,GPLc,E10;;E85;;;;
2600005;2600;36 ROUTE DE LA FERTE MILON;Villers-Cotterêts;49.251137804399995;3.07679246569;1.806;;;Gazole,SP95,E85,SP98;GPLc,E10;GPLc;;;;;
34560002;34560;AVENUE DE SETE;Poussan;43.48327389999999;3.6713791;1.739;;;Gazole,SP95;E85,GPLc,E10,SP98;;E85;;;;
54700006;54700;CENTRE COMMERCIAL MONTRICHARD;Pont-à-Mousson;48.909;6.044;1.704;;;Gazole,SP95,E85,E10,SP98;GPLc;;GPLc;Meurthe-et-Moselle;54;Grand Est;44
16021001;16000;5 avenue Paul Desfarges;Angoulême;45.658;0.181;1.659;;;Gazole,SP95,E85,SP98;GPLc,E10;;GPLc;;;;
95150002;95150;180 Rue d'Herblay;Taverny;49.016;2.207;1.71;;;Gazole,SP95,SP98;E85,GPLc,E10;;E85;;;;
60120002;60120;Rue d'Amiens;Breteuil;49.63618;2.29025;1.709;;;Gazole,SP95,SP98;E85,GPLc,E10;;E85;;;;
10120004;10120;150 RUE DE TROYES;Saint-Germain;48.261519408403004;4.0342037717194;1.699;;;Gazole,SP95,E10,SP98;E85,GPLc;;;Aube;10;Grand Est;44
33640002;33640;43 Route des Graves;Portets;44.688;-0.417;1.89;;;Gazole,SP95,SP98;E85,GPLc,E10;;E85;;;;
44720005;44720;PLACE DE LA COMMUNE DE PARIS;Saint-Joachim;47.386232393331;-2.2034903965863997;1.699;;;Gazole,SP95,SP98;E85,GPLc,E10;;E85;;;;
33370008;33370;6 ave de la prairie;Artigues-près-Bordeaux;44.868;-0.497;1.709;;;Gazole,SP95,E10,SP98;E85,GPLc;;E85;;;;
37400008;37400;44 rue Gregoire de Tours;Amboise;47.411209400000004;0.9829456;1.776;;;Gazole,SP95,SP98;E85,GPLc,E10;;E85;;;;
31330005;31330;Avenue Lazare Carnot;Grenade;43.769;1.296;1.79;;;Gazole,SP95,SP98;E85,GPLc,E10;;E85;;;;
33320003;33320;170 Avenue du Taillan Médoc;Eysines;44.881;-0.651;1.669;;;Gazole,SP95,SP98;E85,GPLc,E10;;E85;;;;
31470006;31470;Lieu dit La Pichette - 1 place Campariol;Fontenilles;43.54734;1.19208;1.694;;;Gazole,SP95,SP98;E85,GPLc,E10;;E85;;;;
68290002;68290;8, rue du general de gaulle;Masevaux-Niederbruck;47.774;6.999;1.679;;;Gazole,SP95,E10;E85,GPLc,SP98;;E85;;;;
49300007;49300;avenue d angers;Cholet;47.075;-0.843;1.659;;;Gazole,SP95,E85,GPLc,E10,SP98;;;;Maine-et-Loire;49;Pays de la Loire;52
20270001;20270;ROUTE N 198;Aléria;42.115;9.514;1.81;;;Gazole,SP95;E85,GPLc,E10,SP98;GPLc;;;;;
79500004;79500;LA COLONNE;Melle;46.225;-0.141;1.773;;;Gazole,SP95;E85,GPLc,E10,SP98;;E85;;;;
10200002;10200;Avenue du Général Leclerc;Bar-sur-Aube;48.238;4.701;1.779;;;Gazole,SP95,E85,E10;GPLc,SP98;;GPLc;;;;
42470004;42470;114 route de Roanne;Saint-Symphorien-de-Lay;45.95;4.204;1.839;;;Gazole,SP95,E85;GPLc,E10,SP98;GPLc;;;;;
34190002;34190;ROUTE DE MONTPELLIER;Laroque;43.92689;3.721;1.698;;;Gazole,SP95,E10,SP98;E85,GPLc;;E85;;;;
20144003;20144;LIEU DIT MOLENDINU;Zonza;41.7;9.348;1.871;;;Gazole,SP95;E85,GPLc,E10,SP98;;E85;Corse-du-Sud;2A;Corse;94
91700003;91700;139 Route de Corbeil;Sainte-Geneviève-des-Bois;48.639;2.334;1.75;;;Gazole,SP95,E85,GPLc,E10,SP98;;;;Essonne;91;Île-de-France;11
25290001;25290;2 rue de cantley;Ornans;47.11;6.126;1.799;;;Gazole,SP95,SP98;E85,GPLc,E10;;E85;;;;
71400016;71400;2 ROUTE DE BEAUNE;Autun;46.956406830948005;4.3163477589328;1.799;;;Gazole,SP95,E85,GPLc,SP98;E10;;E10;Saône-et-Loire;71;Bourgogne-Franche-Comté;27
47400002;47400;Avenue Pierre Mendes France;Tonneins;44.4;0.299;1.699;;;Gazole,SP95,E85,GPLc,E10,SP98;;;;Lot-et-Garonne;47;Nouvelle-Aquitaine;75
55800002;55800;30 rue de la tresse;Revigny-sur-Ornain;48.825;4.993;1.705;;;Gazole,SP95,E10,SP98;E85,GPLc;;E85;;;;
64520002;64520;ROUTE DE CAME;Bidache;43.48409;-1.13843;1.689;;;Gazole,SP95,E10;E85,GPLc,SP98;;SP98;Pyrénées-Atlantiques;64;Nouvelle-Aquitaine;75
44830002;44830;Rue de Nantes;Bouaye;47.144;-1.679;1.669;;;Gazole,SP95,SP98;E85,GPLc,E10;;E85;;;;
35800002;35800;68 Boulevard Jules Verger;Dinard;48.615;-2.07;1.84;;;Gazole,SP95;E85,GPLc,E10,SP98;;E85;;;;
19800004;19800;rn 89;Eyrein;45.342565585200006;1.93384921776;1.787;;;Gazole,SP95,SP98;E85,GPLc,E10;;;Corrèze;19;Nouvelle-Aquitaine;75
7210001;7210;La Clef du Sac;Alissas;44.715;4.615;1.739;;;Gazole,SP95,E85,E10,SP98;GPLc;;GPLc;Ardèche;7;Auvergne-Rhône-Alpes;84
3120002;3120;RUE DE VERDUN;Lapalisse;46.255902605517;3.6224703584643;1.732;;;Gazole,SP95,SP98;E85,GPLc,E10;;;Allier;3;Auvergne-Rhône-Alpes;84
1380001;1380;1 Route du Bourg;Bâgé-Dommartin;46.313;4.942;1.779;;;Gazole,SP95,E10;E85,GPLc,SP98;;E85;;;;
84110006;84110;2918 route de vaison la romaine;Séguret;44.229030660904;5.0139130168282;1.799;;;Gazole,SP95;E85,GPLc,E10,SP98;;E85;;;;
55110002;55110;36 BIS ROUTE NATIONALE;Consenvoye;49.286111095592;5.2884110553228005;1.91;;;Gazole,SP95,SP98;E85,GPLc,E10;;E85;;;;
61220001;61220;RUE D'ARGENTAN;Briouze;48.699;-0.364;1.696;;;Gazole,SP95,SP98;E85,GPLc,E10;;;Orne;61;Normandie;28
4370001;4370;RN208;Villars-Colmars;44.1629;6.60861;1.93;;;Gazole,SP95;E85,GPLc,E10,SP98;;E85;Alpes-de-Haute-Provence;4;Provence-Alpes-Côte d'Azur;93
29420001;29420;Rue de Bel Air;Plouénan;48.628;-3.988;1.698;;;Gazole,SP95,SP98;E85,GPLc,E10;;;Finistère;29;Bretagne;53
27000007;27000;Rue d'Aviron;Évreux;49.042;1.129;1.721;;;Gazole,SP95,SP98;E85,GPLc,E10;E10;E85;;;;
14460002;14460;C.cial Super U Le Libera rd 403;Colombelles;49.19;-0.299;1.719;;;Gazole,SP95,GPLc,E10;E85,SP98;;E85;;;;
20169002;20169;sennola;Bonifacio;41.391;9.165;1.835;;;Gazole,SP95;E85,GPLc,E10,SP98;;E85;;;;
30130011;30130;108 routes des platanes;Pont-Saint-Esprit;44.273;4.628;1.79;;;Gazole,SP95,E85;GPLc,E10,SP98;;GPLc;;;;
60420001;60420;2 rue de la croix de coivrel;Maignelay-Montigny;49.553;2.533;1.676;;;Gazole,SP95,SP98;E85,GPLc,E10;;E85;;;;
13580003;13580;19 Avenue du Général de Gaulle;La Fare-les-Oliviers;43.551;5.202;1.799;;;Gazole,SP95,E85;GPLc,E10,SP98;;GPLc;;;;
54230002;54230;Rue Pasteur;Neuves-Maisons;48.613;6.096;1.705;;;Gazole,SP95,E10,SP98;E85,GPLc;;E85;;;;
39400002;39220;15 route Prémanon;Les Rousses;46.501;6.028;1.699;;;Gazole,SP95,E85,SP98;GPLc,E10;;GPLc;;;;
21330001;21330;2 ROUTE DE CHATILLON;Laignes;47.83946523;4.37160784;1.899;;;Gazole,SP95,E85;GPLc,E10,SP98;;GPLc;;;;
1510003;1510;"1 rue des champs ""les terrasses""";Artemare;45.873;5.698;1.699;;;Gazole,SP95,SP98;E85,GPLc,E10;E85;GPLc;;;;
44220001;44200;75 Boulevard Joliot Curie;Nantes;47.194;-1.53;1.719;;;Gazole,SP95,SP98;E85,GPLc,E10;;E85;;;;
21230005;21230;Rue de l'Arquebuse;Arnay-le-Duc;47.131;4.49;1.729;;;Gazole,SP95,SP98;E85,GPLc,E10;;E10;Côte-d'Or;21;Bourgogne-Franche-Comté;27
17140001;17140;Avenue du Fief Rose;Lagord;46.1739427831;-1.16766879889;1.678;;;Gazole,SP95,E10,SP98;E85,GPLc;;E85;;;;
87150005;87150;1 RUE JEAN SEGUREL;Oradour-sur-Vayres;45.732;0.87;1.699;;;Gazole,SP95,SP98;E85,GPLc,E10;;;Haute-Vienne;87;Nouvelle-Aquitaine;75
45420002;45420;ZI LA CHAMPAGNE;Bonny-sur-Loire;47.572612930651;2.8292177372958;1.669;;;Gazole,SP95,E85,E10,SP98;GPLc;;GPLc;Loiret;45;Centre-Val de Loire;24
62250007;62250;Chemin des poissonniers;Marquise;50.8242;1.71061;1.719;;;Gazole,SP95,E85,E10;GPLc,SP98;;;Pas-de-Calais;62;Hauts-de-France;32
3300003;3300;rue des peupliers;Cusset;46.136;3.455;1.725;;;Gazole,SP95,SP98;E85,GPLc,E10;;E10;Allier;3;Auvergne-Rhône-Alpes;84
44350001;44350;ROUTE DE LA BAULE;Guérande;47.291;-2.398;1.699;;;Gazole,SP95,SP98;E85,GPLc,E10;;E85;;;;
60360002;60360;8 avenue du Général de Gaulle;Crèvecœur-le-Grand;49.604;2.085;1.679;;;Gazole,SP95,E10;E85,GPLc,SP98;;E85;;;;
49330001;49330;MA CAMPAGNE;Les Hauts-d'Anjou;47.681;-0.499;1.709;;;Gazole,SP95,E10,SP98;E85,GPLc;;E85;;;;
69571001;69570;23 Avenue de la Porte de Lyon;Dardilly;45.821;4.766;1.699;;;Gazole,SP95,GPLc,E10,SP98;E85;;E85;Rhône;69;Auvergne-Rhône-Alpes;84
78700002;78700;10 Place de la Liberté et du 8 Mai 1945;Conflans-Sainte-Honorine;49.00644751;2.11854078;1.715;;;Gazole,SP95,SP98;E85,GPLc,E10;E85;;Yvelines;78;Île-de-France;11
32500005;32500;1 Avenue du Corps Franc Pommiès;Fleurance;43.853;0.664;1.849;;;Gazole,SP95;E85,GPLc,E10,SP98;;;Gers;32;Occitanie;76
88100004;88100;5 Rue Marcel Mauss;Saint-Dié-des-Vosges;48.293;6.935;1.708;;;Gazole,SP95,GPLc,SP98;E85,E10;;E85;;;;
56140001;56140;Avenue de la Gare;Malestroit;47.81;-2.393;1.672;;;SP95,SP98;Gazole,E85,GPLc,E10;Gazole;;;;;
57660001;57660;5 rue du Kreuzhof;Erstroff;48.99;6.784;1.8;;;Gazole,SP95;E85,GPLc,E10,SP98;;;Moselle;57;Grand Est;44
64170005;64170;RUE DE LA PATTE D'OIE;Artix;43.398;-0.571;1.698;;;Gazole,SP95,SP98;E85,GPLc,E10;;E85;;;;
13770002;13770;32 avenue des Logissons;Venelles;43.582345003065996;5.4726836758479;1.7;;;Gazole,SP95,E10,SP98;E85,GPLc;;;Bouches-du-Rhône;13;Provence-Alpes-Côte d'Azur;93
42210001;42210;114 Rue du Rival;Montrond-les-Bains;45.644;4.234;1.724;;;Gazole,SP95,SP98;E85,GPLc,E10;;E85;;;;
71130005;71130;31 RUE DU 8 MAI 1945;Gueugnon;46.597;4.052;1.826;;;Gazole,SP95;E85,GPLc,E10,SP98;;GPLc;Saône-et-Loire;71;Bourgogne-Franche-Comté;27
30120002;30120;Place du Maréchal Juin;Le Vigan;43.991;3.608;1.712;;;Gazole,SP95,E85,GPLc;E10,SP98;;E10;;;;
77360001;77360;Place du Général de Gaulle;Vaires-sur-Marne;48.874;2.641;1.729;;;Gazole,SP95,E10,SP98;E85,GPLc;;E85;;;;
42640001;42640;304, rue de Persigny;Saint-Germain-Lespinasse;46.103;3.967;1.836;;;Gazole,SP95;E85,GPLc,E10,SP98;;E85;;;;
25110001;25110;2 Avenue du Général Leclerc;Baume-les-Dames;47.352;6.358;1.78;;;Gazole,SP95;E85,GPLc,E10,SP98;;E85;;;;
20131002;20131;Station TOTAL - RN 196;Pianottoli-Caldarello;41.491854902513;9.0555939368657;1.86;;;Gazole,SP95;E85,GPLc,E10,SP98;;;Corse-du-Sud;2A;Corse;94
20200006;20200;37 ROUTE DU CAP;San-Martino-di-Lota;42.728585259999996;9.45947796;1.85;;;Gazole,SP95;E85,GPLc,E10,SP98;;E85;;;;
61000008;61000;111 Avenue de Basingstoke;Alençon;48.44542;0.09912;1.799;;;Gazole,SP95;E85,GPLc,E10,SP98;;E85;Orne;61;Normandie;28
33127002;33127;1289 Avenue de Pierroton;Saint-Jean-d'Illac;44.801;-0.779;1.86;;;Gazole,SP95,SP98;E85,GPLc,E10;;E85;;;;
63430004;63430;Avenue Roger Prat;Pont-du-Château;45.801;3.243;1.729;;;Gazole,SP95,E10;E85,GPLc,SP98;;E85;;;;
60650006;60650;RN31 - LE VIVIER DANGER;Ons-en-Bray;49.417;1.924;1.689;;;Gazole,SP95,SP98;E85,GPLc,E10;;E85;;;;
80460003;80460;Avenue du Général Leclerc;Ault;50.09824;1.4559;1.699;;;Gazole,SP95,SP98;E85,GPLc,E10;;;Somme;80;Hauts-de-France;32
78955001;78955;55, Route d'Andresy;Carrières-sous-Poissy;48.956;2.042;1.744;;;Gazole,SP95,E10,SP98;E85,GPLc;;E85;;;;
61100007;61800;ROUTE DE PARIS;Tinchebray-Bocage;48.766530091899995;-0.7229053563410001;1.726;;;Gazole,SP95,SP98;E85,GPLc,E10;;E85;;;;
36260002;36260;1 Route de Vierzon;Reuilly;47.082943083663;2.0456366937681;1.719;;;Gazole,SP95,SP98;E85,GPLc,E10;;E85;;;;
20100001;20100;Place Saint Damien;Sartène;41.619;8.968;1.84;;;Gazole,SP95;E85,GPLc,E10,SP98;;E85;;;;
77230004;77230;Route de Vémars;Moussy-le-Neuf;49.06414392;2.5978657800000002;1.715;;;Gazole,SP95,SP98;E85,GPLc,E10;E85;;;;;
26760001;26760;Route de Valence;Beaumont-lès-Valence;44.871;4.942;1.729;;;Gazole,SP95,E85,E10;GPLc,SP98;;GPLc;;;;
20190002;20190;D 83;Santa-Maria-Siché;41.878;8.987;1.949;;;Gazole,SP95;E85,GPLc,E10,SP98;;;Corse-du-Sud;2A;Corse;94
84120004;84120;Av. du 8 Mai;Pertuis;43.687;5.502;1.78;;;Gazole,SP95,SP98;E85,GPLc,E10;;E85;;;;
33230001;33230;Rue François Mitterrand;Coutras;45.046;-0.121;1.702;;;Gazole,SP95,E85,E10,SP98;GPLc;;GPLc;Gironde;33;Nouvelle-Aquitaine;75
40210004;40210;67 allée de Genets;Labouheyre;44.202;-0.929;1.699;;;Gazole,SP95,GPLc,E10;E85,SP98;;E85;;;;
74700001;74700;1751 Avenue de Genève;Sallanches;45.953;6.629;1.759;;;Gazole,SP95,E10,SP98;E85,GPLc;;E85;;;;
43220001;43220;Rue Traversière;Dunières;45.214;4.346;1.729;;;Gazole,SP95;E85,GPLc,E10,SP98;;E85;;;;
64430001;64430;ROUTE DE SAINT JEAN PIED DE PORT;Saint-Étienne-de-Baïgorry;43.18277823;-1.33534068;1.719;;;Gazole,SP95,SP98;E85,GPLc,E10;;E85;;;;
34250002;34250;LES 4 CANAUX;Palavas-les-Flots;43.535;3.911;1.729;;;Gazole,SP95,E10,SP98;E85,GPLc;E85;;;;;
95370001;95370;66 Boulevard Victor Bordier;Montigny-lès-Cormeilles;48.993;2.198;1.752;;;Gazole,SP95,E85,E10,SP98;GPLc;GPLc;;Val-d'Oise;95;Île-de-France;11
43300002;43300;Avenue d'Auvergne;Langeac;45.112;3.492;1.739;;;Gazole,SP95,E85;GPLc,E10,SP98;;GPLc;;;;
18110001;18110;Route de Paris;Saint-Martin-d'Auxigny;47.210547849899996;2.42521747273;1.698;;;Gazole,SP95,SP98;E85,GPLc,E10;;E85;;;;
56230005;56230;14 RUE JEAN GRIMAUD;Questembert;47.662;-2.459;1.699;;;Gazole,SP95,SP98;E85,GPLc,E10;;E85;Morbihan;56;Bretagne;53
65170002;65170;ROUTE DE VIELLE AURE;Bourisp;42.828;0.333;1.776;;;Gazole,SP95,SP98;E85,GPLc,E10;;;Hautes-Pyrénées;65;Occitanie;76
82500003;82500;ZAC DE BORDEVIEILLE;Beaumont-de-Lomagne;43.892;1.012;1.719;;;Gazole,SP95,SP98;E85,GPLc,E10;;E10;Tarn-et-Garonne;82;Occitanie;76
71580002;71580;99 Route de Saint-Germain;Saillenard;46.69067;5.3663;1.755;;;Gazole,SP95,SP98;E85,GPLc,E10;E85;;;;;
36000014;36000;371 Avenue de Verdun;Châteauroux;46.78833;1.70326;1.692;;;Gazole,SP95,E10,SP98;E85,GPLc;;E85;;;;
77170005;77170;25 Rue Pasteur;Brie-Comte-Robert;48.69424;2.61673;1.739;;;Gazole,SP95,E10,SP98;E85,GPLc;;E85;;;;
91450001;91450;Rond Point des Coudray;Étiolles;48.639;2.458;1.729;;;Gazole,SP95,SP98;E85,GPLc,E10;;E85;;;;
20166005;20166;Veta Porticcio;Grosseto-Prugna;41.898;8.81;1.799;;;Gazole,SP95;E85,GPLc,E10,SP98;;;Corse-du-Sud;2A;Corse;94
37420003;37420;11 PLACE EMILE ZOLA;Avoine;47.206;0.185;1.687;;;Gazole,SP95,SP98;E85,GPLc,E10;;E10;Indre-et-Loire;37;Centre-Val de Loire;24
63700004;63700;Rue Jean Moulin;Saint-Éloy-les-Mines;46.16;2.838;1.719;;;Gazole,SP95,SP98;E85,GPLc,E10;;E85;;;;
76700004;76700;48 Route d'Oudalle;Gonfreville-l'Orcher;49.503;0.21;1.8;;;Gazole,SP95,SP98;E85,GPLc,E10;;E10;Seine-Maritime;76;Normandie;28
78660003;78660;1 Rue de Boinville;Ablis;48.515054663739;1.8381448602102002;1.721;;;Gazole,SP95,SP98;E85,GPLc,E10;;E85;;;;
55120001;55120;RN 3;Clermont-en-Argonne;49.10482979203601;5.0684536033295;1.739;;;Gazole,SP95,E10,SP98;E85,GPLc;;E85;;;;
5200007;5200;Avenue Justin Gras;Embrun;44.56;6.487;1.807;;;Gazole,SP95,SP98;E85,GPLc,E10;;E85;;;;
74270001;74270;ROUTE DU TRAM;Frangy;46.018;5.924;1.729;;;Gazole,SP95,SP98;E85,GPLc,E10;E85;GPLc;;;;
24130003;24130;5 Avenue du Commandant Pinson;La Force;44.87;0.377;1.709;;;Gazole,SP95,SP98;E85,GPLc,E10;;E85;;;;
42430001;42430;160 rue du pont de combre;Saint-Just-en-Chevalet;45.915;3.844;1.699;;;Gazole,SP95,E85;GPLc,E10,SP98;;GPLc;;;;
76730001;76730;ROUTE D'ABLEMONT;Bacqueville-en-Caux;49.79;0.998;1.699;;;Gazole,SP95,SP98;E85,GPLc,E10;;E85;;;;
23300006;23300;Avenue Jean Jaures;La Souterraine;46.238577409039;1.4792175194644;1.729;;;Gazole,SP95,E85,E10;GPLc,SP98;;GPLc;;;;
35230001;35230;Rue Mathurin Méheut;Noyal-Châtillon-sur-Seiche;48.045;-1.669;1.679;;;Gazole,SP95,E10,SP98;E85,GPLc;;E85;;;;
3100001;3100;Quai ledru Rollin;Montluçon;46.3474438067;2.60218545365;1.735;;;Gazole,SP95,E10,SP98;E85,GPLc;;E85;;;;
95800001;95650;RUE NEUVE;Puiseux-Pontoise;49.05575;2.0188;1.726;;;Gazole,SP95,E85,E10,SP98;GPLc;;GPLc;Val-d'Oise;95;Île-de-France;11
67290002;67290;Rue Principale;Wingen-sur-Moder;48.92;7.375;1.679;;;Gazole,SP95,SP98;E85,GPLc,E10;;E85;;;;
44620002;44620;Avenue de la Libération;La Montagne;47.176;-1.678;1.664;;;Gazole,SP95,E85,GPLc,E10,SP98;;;;Loire-Atlantique;44;Pays de la Loire;52
12700001;12700;37 Boulevard Paul Ramadier;Capdenac-Gare;44.571;2.075;1.729;;;Gazole,SP95,E10,SP98;E85,GPLc;;E85;;;;
38510004;38510;166 ROUTE D'ARGENT;Morestel;45.67279559999999;5.4712822999999995;1.77;;;Gazole,SP95,SP98;E85,GPLc,E10;;E85;;;;
2310002;2130;47 Rue Jules Lefèbvre;Fère-en-Tardenois;49.196;3.514;1.749;;;Gazole,SP95,SP98;E85,GPLc,E10;;E85;;;;
62230003;62230;Boulevard Industriel;Outreau;50.70189850960001;1.6083952491499998;1.689;;;Gazole,SP95,E85,GPLc,E10;SP98;;SP98;Pas-de-Calais;62;Hauts-de-France;32
20160001;20160;Cours Joseph Colonna;Vico;42.167;8.799;1.85;;;Gazole,SP95;E85,GPLc,E10,SP98;;E85;;;;
34311001;34500;Avenue du pech de Valras;Béziers;43.338;3.239;1.771;;;Gazole,SP95,E10,SP98;E85,GPLc;;E85;;;;
53240001;53240;1 RUE FREDERIC CHAPLET;Andouillé;48.174;-0.783;1.729;;;Gazole,SP95,SP98;E85,GPLc,E10;;E85;;;;
3300001;3300;RTE DE CHARMEIL;Cusset;46.13843644999999;3.4486677500000003;1.731;;;Gazole,SP95,SP98;E85,GPLc,E10;;E85;;;;
64360000;64360;Avenue de la Résistance;Monein;43.336;-0.583;1.699;;;Gazole,SP95,SP98;E85,GPLc,E10;;E85;;;;
62250009;62250;RUE JEAN MONNET;Landrethun-le-Nord;50.84;1.774;1.685;;;Gazole,SP95,SP98;E85,GPLc,E10;;E85;;;;
30133001;30133;1 Avenue de Tavel;Les Angles;43.96;4.75;1.749;;;Gazole,SP95,E10;E85,GPLc,SP98;;E85;;;;
70110001;70110;Rue du 13 Septembre 1944;Villersexel;47.54533;6.42992;1.719;;;Gazole,SP95,E85,E10;GPLc,SP98;;GPLc;;;;
35150001;35150;BOULEVARD CHARCOT;Janzé;47.958;-1.489;1.689;;;Gazole,SP95,E85,GPLc,SP98;E10;;;Ille-et-Vilaine;35;Bretagne;53
25430001;25430;2 Route de Clerval;Sancey;47.306;6.601;1.829;;;Gazole,SP95,E10,SP98;E85,GPLc;;E85;;;;
44390004;44440;23 rue des chenes;Pannecé;47.487;-1.24;1.665;;;Gazole,SP95,SP98;E85,GPLc,E10;;E85;;;;
24580001;24580;LES PLATEAUX DE GRAULET;Rouffignac-Saint-Cernin-de-Reilhac;45.043;0.981;1.74;;;Gazole,SP95,SP98;E85,GPLc,E10;;E85;;;;
13112002;13112;Lieu dit Souque Nègre RN 96;La Destrousse;43.39;5.598;1.74;;;Gazole,SP95,SP98;E85,GPLc,E10;;E85;;;;
31800008;31800;ZAC DES LANDES 10 AVENUE DU CAGIRE;Estancarbon;43.118;0.761;1.76;;;Gazole,SP95,E10,SP98;E85,GPLc;;E85;;;;
39570004;39570;Espace Chantrans;Montmorot;46.67;5.526;1.749;;;Gazole,SP95,E85,GPLc,SP98;E10;;E10;Jura;39;Bourgogne-Franche-Comté;27
12000014;12000;33 Bd Paul ramadier;Rodez;44.359219211413006;2.5698524525378;1.819;;;Gazole,SP95;E85,GPLc,E10,SP98;;E85;;;;
12400007;12400;PARC D’ACTIVITÉ SAINT PIERRE;Rebourguil;43.876;2.778;1.729;;;Gazole,SP95,SP98;E85,GPLc,E10;;E85;;;;
91540003;91540;17 rue Faraday;Mennecy;48.565;2.447;1.728;;;Gazole,SP95,SP98;E85,GPLc,E10;GPLc;E85;;;;
29280001;29280;RUE DES MYOSOTIS;Plouzané;48.372;-4.589;1.649;;;Gazole,SP95,E85,GPLc,SP98;E10;;;Finistère;29;Bretagne;53
35580003;35580;Rue du Perray;Goven;48.005;-1.851;1.659;;;Gazole,SP95,E10;E85,GPLc,SP98;SP98;;Ille-et-Vilaine;35;Bretagne;53
45210005;45210;ROUTE DU BIGNON;Ferrières-en-Gâtinais;48.093;2.802;1.706;;;Gazole,SP95,SP98;E85,GPLc,E10;;E85;;;;
52800001;52800;RUE AMBROISE PARE;Nogent;48.035;5.348;1.749;;;Gazole,SP95,SP98;E85,GPLc,E10;;E85;;;;
58530001;58530;8 Avenue Leclerc;Dornecy;47.434217269200005;3.5887370816099997;1.769;;;Gazole,SP95,SP98;E85,GPLc,E10;;E85;;;;
67500009;67500;37 AVENUE DU PROFESSEUR LERICHE;Haguenau;48.799;7.78;1.708;;;Gazole,SP95,E10,SP98;E85,GPLc;;E85;;;;
29100003;29100;Toubalan;Douarnenez;48.09234;-4.34503;1.67;;;Gazole,SP95,SP98;E85,GPLc,E10;;E85;;;;
2390002;2390;Rue du Thil;Origny-Sainte-Benoite;49.83722;3.49412;1.699;;;Gazole,SP95,SP98;E85,GPLc,E10;;E85;;;;
11310001;11310;698 rue Bernard Marty lot las fountetos;Saissac;43.362978379985;2.1613941268092;1.71;;;Gazole,SP95,SP98;E85,GPLc,E10;;E85;;;;
11120001;11120;Avenue de Saint-Pons;Saint-Marcel-sur-Aude;43.25362;2.91366;1.749;;;Gazole,SP95,E10,SP98;E85,GPLc;;E85;;;;
65000009;65000;Boulevard Lacaussade;Tarbes;43.23426;0.05428;1.979;;;Gazole,SP95;E85,GPLc,E10,SP98;SP98;E85;;;;
73400001;73400;2120 route d'Annecy;Ugine;45.757;6.399;1.919;;;Gazole,SP95,SP98;E85,GPLc,E10;;;Savoie;73;Auvergne-Rhône-Alpes;84
25870002;25870;Route de Bonnay;Devecey;47.32724;6.01064;1.698;;;Gazole,SP95,E85,SP98;GPLc,E10;;GPLc;;;;
30240004;30240;1 RUE ALTIER;Le Grau-du-Roi;43.519;4.132;1.85;;;Gazole,SP95,SP98;E85,GPLc,E10;;E85;;;;
77346001;77340;RN 4 77346 Pontault-Combault;Pontault-Combault;48.776;2.605;1.724;;;Gazole,SP95,E85,E10,SP98;GPLc;GPLc;;Seine-et-Marne;77;Île-de-France;11
2170001;2170;RUE DES VERRIERS;Le Nouvion-en-Thiérache;50.013;3.781;1.709;;;Gazole,SP95,SP98;E85,GPLc,E10;;E85;;;;
26190002;26190;Zone d'activité de la roue est;Saint-Jean-en-Royans;45.025;5.287;1.699;;;Gazole,SP95,E85,SP98;GPLc,E10;;GPLc;;;;
56150004;56150;Route de Pontivy;Baud;47.882;-3.018;1.685;;;Gazole,SP95,E10;E85,GPLc,SP98;;E85;;;;
22700001;22700;34 Rue Ernest Renan;Perros-Guirec;48.8;-3.443;1.774;;;Gazole,SP95,SP98;E85,GPLc,E10;;GPLc;;;;
22600002;22600;8 Boulevard des Peupliers;Loudéac;48.166;-2.751;1.747;;;Gazole,SP95;E85,GPLc,E10,SP98;;E85;;;;
79200009;79200;BD DU THOUET;Châtillon-sur-Thouet;46.661;-0.239;1.799;;;Gazole,SP95,SP98;E85,GPLc,E10;;E85;;;;
68560001;68560;7, rue de Bettendorf;Hirsingue;47.586;7.258;1.709;;;Gazole,SP95,E85,E10,SP98;GPLc;;GPLc;Haut-Rhin;68;Grand Est;44
51200005;51200;Les Rechignons DIZY;Dizy;49.0632528;3.9601343;1.725;;;Gazole,SP95,E10,SP98;E85,GPLc;E85;;;;;
72230007;72230;C. C. RIVE SUD;Arnage;47.94;0.184;1.719;;;Gazole,SP95,E85,GPLc,E10,SP98;;;;Sarthe;72;Pays de la Loire;52
71600009;71600;rue de la grande bruyère;Paray-le-Monial;46.468;4.12;1.709;;;Gazole,SP95,E10,SP98;E85,GPLc;;E85;;;;
33210010;33210;Rue Jules Ferry;Langon;44.54883;-0.25317;1.774;;;Gazole,SP95,E10;E85,GPLc,SP98;;E85;;;;
50110003;50110;39 Boulevard de l'Est;Cherbourg-en-Cotentin;49.635;-1.592;1.719;;;Gazole,SP95,E85,GPLc,E10,SP98;;;;Manche;50;Normandie;28
59650009;59650;186, Rue des Fusillés;Villeneuve-d'Ascq;50.6119672751;3.15988065719;1.975;;;Gazole,SP95,SP98;E85,GPLc,E10;;;Nord;59;Hauts-de-France;32
72600001;72600;ROUTE BELLEME;Mamers;48.351;0.386;1.749;;;Gazole,SP95,GPLc,E10,SP98;E85;;E85;Sarthe;72;Pays de la Loire;52
21000001;21000;Route de Langres;Dijon;47.358;5.048;1.733;;;Gazole,SP95,E10,SP98;E85,GPLc;;E85;;;;
64780001;64780;Quartier Gahardou Sud;Ossès;43.2343851;-1.2965832000000002;1.729;;;Gazole,SP95,SP98;E85,GPLc,E10;;E85;;;;
11390001;11330;1, impasse des Corbières;Mouthoumet;42.96;2.529;1.946;;;Gazole,SP95,E85;GPLc,E10,SP98;;GPLc;;;;
93150008;93150;1 Avenue Armand Esders;Le Blanc-Mesnil;48.948;2.467;1.764;;;Gazole,SP95,E10,SP98;E85,GPLc;;E85;;;;
